"","achievement_count","athlete.badge_type_id","athlete.city","athlete.country","athlete.premium","athlete.resource_state","athlete.sex","athlete.state","athlete_count","average_cadence","average_heartrate","average_speed","average_temp","average_watts","comment_count","commute","device_watts","distance","elapsed_time","elev_high","elev_low","end_latlng","flagged","gear_id","has_heartrate","has_kudoed","kilojoules","kudos_count","location_city","location_country","location_state","manual","max_heartrate","max_speed","max_watts","moving_time","name","photo_count","private","resource_state","start_date","start_date_local","start_latitude","start_latlng","start_longitude","suffer_score","timezone","total_elevation_gain","total_photo_count","trainer","type","weighted_average_watts","workout_type"
"1",0,0,"Perth","Australia",0,2,"M","WA",1,NA,NA,3.745,NA,NA,0,0,NA,5000,1335,NA,NA,"",0,"",0,0,NA,0,"","Australia","",1,NA,0,NA,1335,"Parkrun 5k",0,0,2,"2015-10-10T00:00:00Z","2015-10-10T08:00:00Z",NA,"",NA,NA,"(GMT+08:00) Australia/Perth",0,0,0,"Run",NA,0
"2",1,0,"Madison","United States",0,2,"M","Wisconsin",1,NA,NA,2.973,NA,NA,0,0,NA,41926.3,14304,475.5,255.8,"[43.43 -89.71]",0,"",0,0,NA,0,"Baraboo","United States","Wisconsin",0,NA,11.8,NA,14101,"Lunch Run",0,0,2,"2015-10-22T16:57:10Z","2015-10-22T11:57:10Z",43.43,"[43.43 -89.71]",-89.71,NA,"(GMT-06:00) America/Chicago",810.4,0,0,"Run",NA,2
"3",2,0,"Alexandria","United States",0,2,"M","VA",1,80.1,184.5,2.881,NA,NA,0,0,NA,6042.5,2097,35.2,15.2,"[38.72 -77.17]",0,"g233239",1,0,NA,0,"Fairfax, VA, USA","United States","Virginia",0,201,4.3,NA,2097,"35lb ruck run",0,0,2,"2014-05-28T20:15:18Z","2014-05-28T16:15:18Z",38.72,"[38.72 -77.17]",-77.17,NA,"(GMT-05:00) America/New_York",19,0,0,"Run",NA,0
"4",8,0,"","Canada",0,2,"M","British Columbia",1,NA,NA,2.361,NA,NA,0,0,NA,14343.4,6218,111.3,3.5,"[49.32 -122.96]",0,"",0,0,NA,0,"","Canada","",0,NA,9.4,NA,6076,"Lunch Run",0,0,2,"2016-03-13T18:49:41Z","2016-03-13T11:49:41Z",49.32,"[49.32 -122.96]",-122.96,NA,"(GMT-08:00) America/Vancouver",226.2,0,0,"Run",NA,0
"5",0,0,"Perth","Australia",0,2,"M","Western Australia",1,NA,NA,2.593,NA,NA,0,0,NA,7000,2700,NA,NA,"",0,"",0,0,NA,4,"","Australia","",1,NA,0,NA,2700,"Treadmill Run",0,0,2,"2016-04-03T02:44:43Z","2016-04-02T19:44:43Z",NA,"",NA,NA,"(GMT-08:00) America/Los_Angeles",0,1,0,"Run",NA,0
"6",3,0,"Hot Springs","United States",0,2,"M","AR",1,NA,NA,2.76,NA,NA,0,0,NA,11390.8,4132,27.2,1.6,"[33.83 -118.39]",0,"g793269",0,0,NA,1,"Redondo Beach","United States","California",0,NA,11.1,NA,4127,"Long run at 7 miles via Hermosa Trail",0,0,2,"2015-05-11T16:38:44Z","2015-05-11T09:38:44Z",33.83,"[33.83 -118.39]",-118.39,NA,"(GMT-08:00) America/Los_Angeles",31.4,0,0,"Run",NA,0
"7",3,1,"Oxford","United Kingdom",1,2,"M","Oxfordshire",1,NA,NA,2.768,NA,NA,0,0,NA,15183.8,5541,101.1,57,"[51.78 -1.26]",0,"",0,0,NA,0,"Oxford","United Kingdom","Oxfordshire",0,NA,7.5,NA,5485,"Evening Run",0,0,2,"2014-01-30T18:49:11Z","2014-01-30T18:49:11Z",51.78,"[51.78 -1.26]",-1.26,NA,"(GMT+00:00) Europe/London",65.4,0,0,"Run",NA,NA
"8",1,0,"Vitoria-Gasteiz","Spain",0,2,"M","Alava",1,81.8,153.5,3.296,NA,NA,0,0,NA,16009.5,4917,569.2,509.1,"[42.86 -2.66]",0,"",1,0,NA,1,"Vitoria-Gasteiz","Spain","Euskadi",0,177,7.3,NA,4857,"Lunch Run",0,0,2,"2016-02-19T10:19:38Z","2016-02-19T11:19:38Z",42.86,"[42.86 -2.66]",-2.66,NA,"(GMT+01:00) Europe/Madrid",69.4,0,0,"Run",NA,NA
"9",6,0,"Jefferson","United States",0,2,"M","OR",1,NA,NA,5.179,NA,NA,0,0,NA,15002.3,3042,63.3,54.2,"[44.77 -123.06]",0,"",0,0,NA,0,"Jefferson","United States","OR",0,NA,42,NA,2897,"Sunday Runday Ankeny-Talbot",0,0,2,"2014-02-16T16:49:21Z","2014-02-16T08:49:21Z",44.76,"[44.76 -123.06]",-123.06,NA,"(GMT-08:00) America/Los_Angeles",0,0,0,"Run",NA,NA
"10",0,0,"","Spain",0,2,"M","",1,NA,NA,2.032,NA,NA,0,0,NA,6131.4,3568,53,3.3,"[41.39 2.16]",0,"",0,0,NA,0,"Barcelona","Spain","Catalunya",0,NA,4.1,NA,3018,"09/11/2014 Barcelona, Catalunya, Spain",0,0,2,"2014-09-11T18:24:32Z","2014-09-11T20:24:32Z",41.39,"[41.39 2.16]",2.16,NA,"(GMT+01:00) Europe/Madrid",50.1,0,0,"Run",NA,NA
"11",8,0,"Plaisance-du-Touch","France",0,2,"M","Midi-Pyrénées",1,NA,NA,3.038,NA,NA,0,0,NA,7976.9,2654,148.6,142.1,"[43.66 1.37]",0,"",0,0,NA,1,"","France","",0,NA,7.3,NA,2626,"Course du midi",0,0,2,"2016-03-18T11:40:32Z","2016-03-18T12:40:32Z",43.65,"[43.65 1.37]",1.37,NA,"(GMT+01:00) Europe/Paris",0,0,0,"Run",NA,0
"12",7,0,"Corte Madera","United States",0,2,"M","CA",1,101.4,162.3,4.174,NA,NA,0,0,NA,7513.6,1841,17,-2,"[37.89 -122.53]",0,"g374003",1,0,NA,12,"Sausalito","United States","California",0,168,5.3,NA,1800,"Couldn't get my legs to move fast enough or my HR up high enough to match what my mind wanted. But I'll take it. ",0,0,2,"2015-03-06T13:48:39Z","2015-03-06T05:48:39Z",37.87,"[37.87 -122.51]",-122.51,NA,"(GMT-08:00) America/Los_Angeles",18,0,0,"Run",NA,0
"13",0,1,"Uccle","Belgium",1,2,"M","Brussels",1,77.1,NA,2.751,NA,NA,0,0,NA,9063.9,3298,23.1,1.1,"[48.84 -3]",0,"g671030",0,0,NA,1,"Île-de-Bréhat","France","Bretagne",0,NA,4.1,NA,3295,"9km Bréhat avec Carole (puis 500m crawl)",0,0,2,"2015-08-17T15:52:10Z","2015-08-17T17:52:10Z",48.84,"[48.84 -3]",-3,NA,"(GMT+01:00) Europe/Paris",64.9,0,0,"Run",NA,0
"14",0,0,"Melbourne","Australia",0,2,"M","Victoria",1,NA,NA,1.701,NA,NA,0,0,NA,6285.7,4092,41.6,15.7,"[-37.8 145.06]",0,"g200925",0,0,NA,0,"Kew","Australia","Victoria",0,NA,2.6,NA,3696,"02/09/2014 Kew, Victoria, Australia",0,0,2,"2014-09-02T07:20:05Z","2014-09-02T17:20:05Z",-37.8,"[-37.8 145.06]",145.06,NA,"(GMT+10:00) Australia/Melbourne",23.9,0,0,"Run",NA,NA
"15",0,0,"Rennes","France",0,2,"M","Bretagne",1,NA,145.9,3.001,NA,NA,0,0,NA,8958.7,3384,40.5,26.7,"[48.07 -1.71]",0,"",1,0,NA,0,"Saint-Jacques-de-la-Lande","France","Bretagne",0,177,6.3,NA,2985,"Midi - Piste",0,0,2,"2013-09-19T10:13:20Z","2013-09-19T12:13:20Z",48.07,"[48.07 -1.71]",-1.71,NA,"(GMT+01:00) Europe/Paris",12.6,0,0,"Run",NA,NA
"16",8,0,"Munich","Germany",0,2,"M","BY",1,NA,148.6,2.952,NA,NA,0,0,NA,12237.1,4181,520.3,499.4,"[48.21 11.56]",0,"",1,0,NA,0,"München","Germany","Bayern",0,158,9.7,NA,4146,"Nachmittagslauf",0,0,2,"2015-12-30T15:47:53Z","2015-12-30T16:47:53Z",48.21,"[48.21 11.56]",11.56,NA,"(GMT+01:00) Europe/Berlin",43.9,0,0,"Run",NA,NA
"17",0,0,"Southport ","United Kingdom",0,2,"M","England",1,NA,NA,3.342,NA,NA,0,0,NA,6269.6,1888,121.9,109.5,"[51.77 8.72]",0,"g642847",0,0,NA,0,"Paderborn","Germany","Nordrhein-Westfalen",0,NA,5.5,NA,1876,"Afternoon Run",0,0,2,"2015-03-24T13:30:39Z","2015-03-24T14:30:39Z",51.77,"[51.77 8.72]",8.72,NA,"(GMT+01:00) Europe/Berlin",10.9,0,0,"Run",NA,0
"18",0,0,"","",0,2,"M","",1,NA,152.5,2.901,NA,NA,4,0,NA,9955.2,3437,13.3,1,"[51.58 4.66]",0,"",1,0,NA,6,"Breda","Netherlands","Noord-Brabant",0,169,7.1,NA,3432,"Namiddagloop",0,0,2,"2015-11-02T16:03:32Z","2015-11-02T17:03:32Z",51.59,"[51.59 4.75]",4.75,NA,"(GMT+01:00) Europe/Amsterdam",10.1,0,0,"Run",NA,NA
"19",0,0,"Medford","United States",0,2,"M","MA",2,80.5,NA,2.389,NA,NA,0,0,NA,7149.5,6411,82.5,25.2,"[42.42 -71.13]",0,"g711900",0,0,NA,1,"","United States","",0,NA,3.4,NA,2993,"Evening Run",0,0,2,"2016-03-30T22:26:54Z","2016-03-30T18:26:54Z",42.44,"[42.44 -71.12]",-71.12,NA,"(GMT-05:00) America/New_York",78.9,0,0,"Run",NA,0
"20",0,0,"Sintra","Portugal",0,2,"M","Lisbon",1,NA,NA,2.427,NA,NA,0,0,NA,8496.4,3664,166.2,74.7,"[38.74 -9.31]",0,"g290144",0,0,NA,0,"","","",0,NA,3.6,NA,3501,"09/04/2012",0,0,2,"2012-09-04T11:27:39Z","2012-09-04T12:27:39Z",38.75,"[38.75 -9.31]",-9.31,NA,"(GMT+00:00) Europe/Lisbon",153.3,0,0,"Run",NA,NA
"21",3,0,"Stewartstown","United States",0,2,"M","PA",1,NA,NA,3.901,NA,NA,0,0,NA,25629.3,7717,207.9,101.6,"[39.71 -76.68]",0,"g509131",0,0,NA,1,"Freeland","United States","Maryland",0,NA,9.9,NA,6570,"Lunch Run",0,0,2,"2015-07-03T16:50:28Z","2015-07-03T12:50:28Z",39.71,"[39.71 -76.68]",-76.68,NA,"(GMT-05:00) America/New_York",153.4,0,0,"Run",NA,0
"22",12,0,"","",0,2,"M","",1,NA,161.5,2.962,NA,NA,0,0,NA,10059.5,3495,89.1,44.6,"[51.24 -0.61]",0,"",1,0,NA,0,"","","",0,198,4.6,NA,3396,"Evening Run",0,0,2,"2016-02-10T18:00:03Z","2016-02-10T18:00:03Z",51.24,"[51.24 -0.61]",-0.61,NA,"(GMT+00:00) Europe/London",71.5,0,0,"Run",NA,0
"23",1,0,"Gloucester, UK","United Kingdom",0,2,"M","England",1,NA,NA,3.327,NA,NA,0,0,NA,8795.3,2773,268.2,69.3,"[51.84 -2.14]",0,"",0,0,NA,0,"Brockworth","United Kingdom","",0,NA,6.7,NA,2644,"Evening run",0,0,2,"2014-10-28T16:03:13Z","2014-10-28T16:03:13Z",51.84,"[51.84 -2.14]",-2.14,NA,"(GMT+00:00) Europe/London",218,0,0,"Run",NA,0
"24",0,0,"Alexandria","United States",0,2,"M","VA",1,58.2,110,1.506,NA,NA,0,0,NA,7176.9,5290,89.7,37.3,"[38.72 -77.33]",0,"g765412",1,0,NA,0,"Fairfax Station","United States","Virginia",0,156,3.4,NA,4767,"08/16/2015 Fairfax Station, Virginia",0,0,2,"2015-08-16T16:33:32Z","2015-08-16T12:33:32Z",38.73,"[38.73 -77.32]",-77.32,NA,"(GMT-05:00) America/New_York",86.4,0,0,"Run",NA,0
"25",0,1,"Ciudad Juarez","México",1,2,"M","CHIH",1,NA,NA,1.005,14,NA,0,0,NA,2687,2796,1064.6,1058.4,"[31.72 -106.41]",0,"g393899",0,0,NA,0,"Juárez","Mexico","Chihuahua",0,NA,7.6,NA,2674,"11/19/2014 Juárez, Chihuahua, Mexico",0,0,2,"2014-11-20T04:47:31Z","2014-11-19T21:47:31Z",31.72,"[31.72 -106.41]",-106.41,NA,"(GMT-07:00) America/Ojinaga",39,0,0,"Run",NA,NA
"26",0,1,"Paris","France",1,2,"M","Île-de-France",1,NA,161.8,2.629,NA,NA,0,0,NA,7184.4,2880,55.8,24.9,"[48.85 2.35]",0,"",NA,0,NA,0,"Paris","France","IDF",0,172,10.2,NA,2733,"12/07/2013 Paris, IDF, France",0,0,2,"2013-12-07T17:57:39Z","2013-12-07T18:57:39Z",48.87,"[48.87 2.3]",2.3,97,"(GMT+01:00) Europe/Paris",82.2,0,0,"Run",NA,3
"27",5,0,"Lyneham","Australia",0,2,"M","Australian Capital Territory",1,NA,NA,3.147,NA,NA,0,0,NA,9436.9,3137,834.1,570.7,"[-35.26 149.13]",0,"",0,0,NA,0,"Braddon","Australia","Australian Capital Territory",0,NA,5.6,NA,2999,"Ainslie Run",0,0,2,"2015-01-23T22:25:00Z","2015-01-24T09:25:00Z",-35.26,"[-35.26 149.13]",149.13,NA,"(GMT+10:00) Australia/Sydney",308.5,0,0,"Run",NA,0
"28",0,0,"Aix-en-Provence","France",0,2,"M","Provence-Alpes-Côte d'Azur",1,NA,146.7,3.196,NA,NA,0,0,NA,7749.9,2430,257.4,210.2,"[43.55 5.41]",0,"",1,0,NA,0,"Aix En Provence","France","PACA",0,162,4.2,NA,2425,"06/04/2013 Aix En Provence, PACA, France",0,0,2,"2013-06-04T12:06:30Z","2013-06-04T14:06:30Z",43.55,"[43.55 5.41]",5.41,NA,"(GMT+01:00) Europe/Paris",98,0,0,"Run",NA,0
"29",0,0,"Nord, France","France",0,2,"M","Nord-Pas-de-Calais",2,NA,155.5,3.867,NA,NA,0,0,NA,5007.3,1295,38.2,27,"[50.67 2.34]",0,"",1,0,NA,2,"Roquetoire","France","Nord-Pas-de-Calais",0,178,5.1,NA,1295,"Course à pied l'après-midi",0,0,2,"2015-09-17T15:07:05Z","2015-09-17T17:07:05Z",50.67,"[50.67 2.34]",2.34,NA,"(GMT+01:00) Europe/Paris",20.9,0,0,"Run",NA,0
"30",0,1,"Aliso Viejo","United States",1,2,"M","California",1,NA,149.7,3.426,NA,NA,2,0,NA,7831.9,3681,202.9,82.6,"[33.57 -117.74]",0,"g157122",1,0,NA,1,"Aliso Viejo","United States","CA",0,168,4.7,NA,2286,"12/26/2013 Aliso Viejo, CA",0,0,2,"2013-12-26T18:36:28Z","2013-12-26T10:36:28Z",33.57,"[33.57 -117.74]",-117.74,66,"(GMT-08:00) America/Los_Angeles",451.5,0,0,"Run",NA,NA
"31",0,0,"Albany","United States",0,2,"M","New York",1,NA,NA,2.84,NA,NA,0,0,NA,10476.9,5548,188.7,175,"[42.84 -78.79]",0,"",0,0,NA,0,"Buffalo","United States","New York",0,NA,4.6,NA,3689,"05/25/2015 Buffalo, New York",0,0,2,"2015-05-25T12:50:58Z","2015-05-25T08:50:58Z",42.83,"[42.83 -78.79]",-78.79,NA,"(GMT-05:00) America/New_York",21.3,0,0,"Run",NA,NA
"32",13,0,"Terrassa","Spain",0,2,"M","Barcelona",1,NA,NA,1.685,NA,NA,0,0,NA,10462.5,6905,1086.8,582.4,"[41.63 2]",0,"",0,0,NA,2,"","Spain","",0,NA,18.2,NA,6209,"Carrera matutina",0,0,2,"2016-03-04T07:22:35Z","2016-03-04T08:22:35Z",41.63,"[41.63 2]",2,NA,"(GMT+01:00) Europe/Madrid",593.4,1,0,"Run",NA,0
"33",0,1,"Lancashire, UK","United Kingdom",1,2,"M","England",1,NA,NA,3.755,NA,NA,0,0,NA,13518.5,3600,NA,NA,"",0,"g165695",0,0,NA,0,"","United Kingdom","",1,NA,0,NA,3600,"Afternoon Run",0,0,2,"2014-12-21T12:15:00Z","2014-12-21T12:15:00Z",NA,"",NA,NA,"(GMT+00:00) Europe/London",0,0,0,"Run",NA,NA
"34",0,0,"Louisville","United States",0,2,"M","CO",1,NA,149.9,1.359,NA,NA,0,0,NA,5985.2,4820,2479.9,1743.5,"[40 -105.29]",0,"g1048976",1,0,NA,0,"Boulder","United States","CO",0,174,3.3,NA,4404,"2015_04_16 Green Mountain #43",0,0,2,"2015-04-16T15:22:09Z","2015-04-16T09:22:09Z",40,"[40 -105.29]",-105.29,NA,"(GMT-07:00) America/Denver",729,0,0,"Run",NA,NA
"35",0,0,"Vilnius","Lithuania",0,2,"M","Vilniaus apskritis",1,89.6,155.3,3.462,NA,NA,0,0,NA,4016,1182,117.9,86.3,"[54.69 25.24]",0,"",1,0,NA,0,"Vilnius","Lithuania","Vilniaus apskritis",0,167,4.1,NA,1160,"Lunch Run",0,0,2,"2015-09-17T08:34:40Z","2015-09-17T11:34:40Z",54.69,"[54.69 25.24]",25.24,NA,"(GMT+02:00) Europe/Vilnius",30.9,0,0,"Run",NA,NA
"36",0,0,"Bradford","United Kingdom",0,2,"M","England",1,NA,NA,3.274,NA,NA,0,0,NA,5022.7,1635,174.1,82.7,"[53.83 -1.71]",0,"",0,0,NA,0,"Bradford","United Kingdom","England",0,NA,4.4,NA,1534,"01/03/2014 Bradford, England, United Kingdom",0,0,2,"2014-01-03T18:25:20Z","2014-01-03T18:25:20Z",53.83,"[53.83 -1.72]",-1.72,NA,"(GMT+00:00) Europe/London",89.9,0,0,"Run",NA,NA
"37",1,0,"Sacramento","United States",0,2,"M","CA",1,86.4,120.6,2.663,NA,NA,0,0,NA,8253.8,3533,18.7,7,"[38.57 -121.38]",0,"",1,0,NA,0,"Sacramento","United States","California",0,138,3.9,NA,3100,"Lunch Run",0,0,2,"2015-12-01T20:58:27Z","2015-12-01T12:58:27Z",38.57,"[38.57 -121.36]",-121.36,NA,"(GMT-08:00) America/Los_Angeles",0,0,0,"Run",NA,NA
"38",1,0,"Singapore","Singapore",0,2,"M","",1,NA,NA,2.637,NA,NA,0,0,NA,5033.9,1912,16.6,0,"[-37.98 145.02]",0,"",0,0,NA,0,"Black Rock","Australia","VIC",0,NA,4.9,NA,1909,"Clocktower - Charman Return",0,0,2,"2013-12-31T21:22:49Z","2014-01-01T08:22:49Z",-37.98,"[-37.98 145.02]",145.02,NA,"(GMT+10:00) Australia/Melbourne",31.2,0,0,"Run",NA,0
"39",3,0,"New York","United States",0,2,"M","NY",1,NA,153.7,2.112,NA,NA,0,0,NA,2823.9,1500,8,3.9,"[40.72 -73.95]",0,"",1,0,NA,0,"Brooklyn","United States","New York",0,175,3.5,NA,1337,"07/22/2015 Brooklyn, New York",0,0,2,"2015-07-22T11:27:28Z","2015-07-22T07:27:28Z",40.73,"[40.73 -73.95]",-73.95,NA,"(GMT-05:00) America/New_York",0,0,0,"Run",NA,NA
"40",0,0,"Son","Netherlands",0,2,"M","NB",1,NA,NA,3.333,NA,NA,0,0,NA,13000,3900,NA,NA,"",0,"g720813",NA,0,NA,0,"","Netherlands","",1,NA,0,NA,3900,"Hardlopen met Dekker",0,0,2,"2015-04-26T12:30:48Z","2015-04-26T14:30:48Z",NA,"",NA,NA,"(GMT+01:00) Europe/Amsterdam",0,0,0,"Run",NA,NA
"41",0,0,"Marlborough","United Kingdom",0,2,"M","England",1,94.7,143.4,3.674,NA,NA,0,0,NA,11390.5,3100,200.4,129.6,"[51.42 -1.72]",0,"g298222",1,0,NA,1,"Marlborough","United Kingdom","Wiltshire",0,159,5.8,NA,3100,"18/03/2014 Marlborough, Wiltshire, United Kingdom",0,0,2,"2014-03-18T19:03:54Z","2014-03-18T19:03:54Z",51.42,"[51.42 -1.72]",-1.72,NA,"(GMT+00:00) Europe/London",104.2,0,0,"Run",NA,0
"42",0,0,"Denver","United States",0,2,"M","Colorado",1,NA,NA,3.237,NA,NA,0,0,NA,11265.4,3480,NA,NA,"",0,"",0,0,NA,0,"","United States","",1,NA,0,NA,3480,"Evening Run",0,0,2,"2014-12-24T23:23:18Z","2014-12-24T15:23:18Z",NA,"",NA,NA,"(GMT-08:00) America/Los_Angeles",0,0,0,"Run",NA,NA
"43",0,0,"Ankara","Türkiye",0,2,"M","Ankara",1,NA,NA,2.538,NA,NA,0,0,NA,9100,3585,NA,NA,"",0,"g355543",0,0,NA,7,"","Turkey","",1,NA,0,NA,3585,"Afternoon Run",0,0,2,"2015-06-20T13:29:28Z","2015-06-20T16:29:28Z",NA,"",NA,NA,"(GMT+02:00) Europe/Istanbul",0,1,0,"Run",NA,NA
"44",0,0,"Tauranga","New Zealand",0,2,"M","Bay Of Plenty",1,NA,NA,2.925,NA,NA,0,0,NA,6541,2274,22.5,6.4,"[-37.64 176.19]",0,"g183502",0,0,NA,0,"Tauranga","New Zealand","Bay Of Plenty",0,NA,3.6,NA,2236,"Along The Beach Front",0,0,2,"2014-06-29T04:16:20Z","2014-06-29T16:16:20Z",-37.64,"[-37.64 176.19]",176.19,NA,"(GMT+12:00) Pacific/Auckland",12.1,0,0,"Run",NA,0
"45",0,0,"United States","United States",0,2,"M","CA",1,NA,NA,1.909,NA,NA,0,0,NA,1244.6,688,114.3,113.8,"[35.35 -119.11]",0,"",0,0,NA,0,"United States","United States","CA",0,NA,15.2,NA,652,"Afternoon Run",0,0,2,"2014-12-19T23:23:58Z","2014-12-19T15:23:58Z",35.35,"[35.35 -119.11]",-119.11,NA,"(GMT-08:00) America/Los_Angeles",0,0,0,"Run",NA,0
"46",6,0,"Boston","United States",0,2,"M","MA",1,NA,NA,3.572,NA,NA,0,0,NA,7894.8,2327,6.1,0.2,"[42.35 -71.09]",0,"",0,0,NA,0,"Boston","United States","MA",0,NA,6,NA,2210,"05/19/2014 Boston, MA",0,0,2,"2014-05-19T17:40:01Z","2014-05-19T13:40:01Z",42.35,"[42.35 -71.09]",-71.09,NA,"(GMT-05:00) America/New_York",0,0,0,"Run",NA,0
"47",0,0,"Mobile","United States",0,2,"M","Alabama",1,NA,NA,2.801,NA,NA,0,0,NA,4515.8,1682,64.6,32.4,"[30.69 -88.19]",0,"",0,0,NA,0,"Mobile","United States","Alabama",0,NA,4.9,NA,1612,"Afternoon Run",0,0,2,"2015-11-09T23:09:23Z","2015-11-09T17:09:23Z",30.69,"[30.69 -88.19]",-88.19,NA,"(GMT-06:00) America/Chicago",46.6,0,0,"Run",NA,0
"48",0,0,"Colchester","United Kingdom",0,2,"M","England",2,94.9,NA,4.277,NA,NA,0,0,NA,2446.7,572,27.5,22.8,"[51.87 0.94]",0,"g571134",0,0,NA,0,"Colchester","United Kingdom","",0,NA,6.8,NA,572,"Circuits",0,0,2,"2014-12-29T19:39:38Z","2014-12-29T19:39:38Z",51.87,"[51.87 0.94]",0.94,NA,"(GMT+00:00) Europe/London",0,0,0,"Run",NA,3
"49",0,0,"Saint-Étienne","France",0,2,"M","Rhône-Alpes",1,NA,NA,2.513,NA,NA,0,0,NA,14808.9,6854,618.4,451.7,"[45.45 4.38]",0,"",0,0,NA,0,"Saint-Étienne","France","Rhône-Alpes",0,NA,5.7,NA,5893,"23/03/2015 Saint-Étienne, Rhône-Alpes, France",0,0,2,"2015-03-23T16:36:44Z","2015-03-23T17:36:44Z",45.45,"[45.45 4.38]",4.38,NA,"(GMT+01:00) Europe/Paris",293.1,0,0,"Run",NA,3
"50",1,0,"lardy","France",0,2,"M","IDF",2,NA,133.1,3.523,NA,NA,0,0,NA,14388.7,5406,95.3,62.3,"[48.48 2.19]",0,"g887395",1,0,NA,1,"Étréchy","France","IDF",0,214,5.9,NA,4084,"8x800 (2'54/2'52) entretien ",0,0,2,"2015-11-19T18:08:05Z","2015-11-19T19:08:05Z",48.49,"[48.49 2.19]",2.19,NA,"(GMT+01:00) Europe/Paris",88.7,0,0,"Run",NA,3
"51",6,0,"Tarragona","Spain",0,2,"M","Catalunya",1,NA,NA,2.586,NA,NA,0,0,NA,18238.5,7218,91.3,0,"[41.13 1.29]",0,"g982569",0,0,NA,2,"Tarragona","Spain","Catalunya",0,NA,10.4,NA,7054,"Morning Run",0,0,2,"2016-01-30T06:04:27Z","2016-01-30T07:04:27Z",41.13,"[41.13 1.29]",1.29,NA,"(GMT+01:00) Europe/Madrid",196,0,0,"Run",NA,0
"52",0,0,"Riverside","United States",0,2,"M","CA",1,NA,140.5,3.543,NA,NA,2,0,NA,11340.8,3326,328.3,286.8,"[33.95 -117.34]",0,"",1,0,NA,5,"","United States","",0,162,4.9,NA,3201,"This weekend: getting ready for lots of lettuce and pho cups",0,0,2,"2016-02-12T16:17:39Z","2016-02-12T08:17:39Z",33.95,"[33.95 -117.34]",-117.34,NA,"(GMT-08:00) America/Los_Angeles",62,0,0,"Run",NA,NA
"53",3,0,"Glasgow","United Kingdom",0,2,"M","Scotland",1,NA,NA,2.907,NA,NA,0,0,NA,9003.2,3397,44.6,9.1,"[55.81 -4.27]",0,"g560996",0,0,NA,0,"Glasgow","United Kingdom","Scotland",0,NA,5,NA,3097,"Christoph",0,0,2,"2015-04-10T16:39:24Z","2015-04-10T17:39:24Z",55.85,"[55.85 -4.28]",-4.28,NA,"(GMT+00:00) Europe/London",50.7,0,0,"Run",NA,NA
"54",2,0,"Napier","New Zealand",0,2,"M","Hawke's Bay",1,NA,NA,3.392,NA,NA,0,0,NA,21109.8,6290,34.9,13.5,"[51.46 -0.17]",0,"",0,0,NA,0,"London, UK","United Kingdom","England",0,NA,4.2,NA,6224,"08/27/2012 London, UK, England, United Kingdom",0,0,2,"2012-08-27T17:33:47Z","2012-08-27T18:33:47Z",51.46,"[51.46 -0.17]",-0.17,NA,"(GMT+00:00) Europe/London",66.7,0,0,"Run",NA,NA
"55",0,0,"Almere","The Netherlands",0,2,"M","FL",1,NA,155,2.269,NA,NA,0,0,NA,5873.4,2589,1,-6.6,"[52.4 5.27]",0,"",1,0,NA,0,"Almere","The Netherlands","FL",0,182,4.4,NA,2589,"Avondloop",0,0,2,"2015-11-12T19:44:07Z","2015-11-12T20:44:07Z",52.4,"[52.4 5.27]",5.27,NA,"(GMT+01:00) Europe/Amsterdam",0,0,0,"Run",NA,NA
"56",0,0,"Vancouver","United States",0,2,"M","WA",1,NA,NA,3.338,NA,NA,0,0,NA,6445.8,1931,71.5,9.8,"[45.65 -122.67]",0,"",0,0,NA,0,"Vancouver","United States","WA",0,NA,7.2,NA,1931,"Evening Run",0,0,2,"2015-06-25T01:05:48Z","2015-06-24T18:05:48Z",45.65,"[45.65 -122.67]",-122.67,NA,"(GMT-08:00) America/Los_Angeles",63.6,0,0,"Run",NA,NA
"57",2,0,"Kendal","United Kingdom",0,2,"M","England",1,NA,NA,2.478,NA,NA,0,0,NA,8109.4,3289,72.6,42.6,"[54.32 -2.73]",0,"",0,0,NA,0,"Kendal","United Kingdom","",0,NA,3.6,NA,3273,"17/12/2013 Kendal, United Kingdom",0,0,2,"2013-12-17T19:04:36Z","2013-12-17T19:04:36Z",54.33,"[54.33 -2.73]",-2.73,NA,"(GMT+00:00) Europe/London",23.3,0,0,"Run",NA,0
"58",0,1,"Skurup","Sverige",1,2,"M","Skåne County",1,NA,NA,2.979,NA,NA,0,0,NA,6392.9,2321,14.7,0.9,"[55.4 13.59]",0,"",0,0,NA,0,"Skurup S, Sweden","Sweden","Skåne County",0,NA,3.6,NA,2146,"10/18/2014 Skurup S, Sweden, Skåne County, Sweden",0,0,2,"2014-10-18T06:43:40Z","2014-10-18T08:43:40Z",55.4,"[55.4 13.6]",13.6,NA,"(GMT+01:00) Europe/Stockholm",0,0,0,"Run",NA,NA
"59",0,0,"Colchester","United Kingdom",0,2,"M","England",1,NA,NA,4.148,NA,NA,0,0,NA,1775.3,1151,35.1,33,"[51.88 0.9]",0,"",0,0,NA,0,"Colchester","United Kingdom","England",0,NA,8,NA,428,"02/22/2015 Colchester, England, United Kingdom",0,0,2,"2015-02-22T10:56:16Z","2015-02-22T10:56:16Z",51.88,"[51.88 0.9]",0.9,NA,"(GMT+00:00) Europe/London",0,0,0,"Run",NA,NA
"60",0,1,"Langenfeld (Rheinland)","Deutschland",1,2,"M","Nordrhein-Westfalen",1,NA,148.2,2.2,NA,NA,0,0,NA,6435.4,2931,74.3,56.2,"[51.12 6.97]",0,"",1,0,NA,0,"","Germany","",0,167,3.6,NA,2925,"BST2 - 6k",0,0,2,"2015-09-15T18:34:26Z","2015-09-15T20:34:26Z",51.12,"[51.12 6.98]",6.98,60,"(GMT+01:00) Europe/Berlin",17.2,0,0,"Run",NA,NA
"61",0,1,"Spokane","United States",1,2,"M","WA",1,84.3,NA,3.135,NA,NA,0,0,NA,8079.5,2590,578.9,521.9,"[47.66 -117.41]",0,"g732643",0,0,NA,5,"Spokane","United States","Washington",0,NA,4.8,NA,2577,"First run w/ Bill Sayres since HTC '99",0,0,2,"2015-08-31T18:05:06Z","2015-08-31T11:05:06Z",47.66,"[47.66 -117.41]",-117.41,NA,"(GMT-08:00) America/Los_Angeles",98,0,0,"Run",NA,0
"62",1,0,"Palma","Spain",0,2,"M","PM",1,NA,NA,2.891,NA,NA,0,0,NA,9567.7,3357,522.8,497.2,"[40.19 -3.67]",0,"",0,0,NA,0,"Valdemoro","Spain","Community of Madrid",0,NA,5.6,NA,3310,"04/10/2014 Valdemoro, Community of Madrid, Spain",0,0,2,"2014-04-10T08:28:30Z","2014-04-10T10:28:30Z",40.19,"[40.19 -3.67]",-3.67,NA,"(GMT+01:00) Europe/Madrid",23,0,0,"Run",NA,NA
"63",0,0,"Laborde Au Bural","Switzerland",0,2,"M","GROLAND DU BAS",1,NA,NA,1.407,NA,NA,0,0,NA,5581.5,5535,1884.7,1313.8,"[46.35 7.02]",0,"",0,0,NA,1,"","Switzerland","",0,NA,3.5,NA,3966,"Course à pied matinale",0,0,2,"2015-12-29T08:43:27Z","2015-12-29T09:43:27Z",46.35,"[46.35 7.02]",7.02,NA,"(GMT+01:00) Europe/Zurich",557.5,0,0,"Run",NA,0
"64",4,0,"Barcelona","Spain",0,2,"M","BARCELONA",17,77.7,NA,3.045,NA,NA,0,0,NA,21218.4,6973,309,216,"[41.35 1.7]",0,"",0,0,NA,1,"","Spain","",0,NA,5.1,NA,6969,"Morning Run",0,0,2,"2015-12-27T09:00:31Z","2015-12-27T10:00:31Z",41.36,"[41.36 1.7]",1.7,NA,"(GMT+01:00) Europe/Madrid",156,0,0,"Run",NA,NA
"65",0,0,"Woustviller","France",0,2,"M","Lorraine",2,NA,149.6,3.177,NA,NA,0,0,NA,6134.3,1974,273.3,195,"[49.12 7.07]",0,"g548753",1,0,NA,1,"Sarreguemines","France","Lorraine",0,172,6.2,NA,1931,"Course à pied l'après-midi",0,0,2,"2015-09-19T14:20:38Z","2015-09-19T16:20:38Z",49.12,"[49.12 7.07]",7.07,NA,"(GMT+01:00) Europe/Berlin",78.6,0,0,"Run",NA,NA
"66",0,0,"岡山市","日本",0,2,"M","岡山県",1,NA,NA,2.943,NA,NA,0,0,NA,13297.4,4519,19.5,-3,"[34.68 133.95]",0,"g709835",0,0,NA,0,"Okayama","Japan","Okayama",0,NA,3.7,NA,4519,"teru_2014/03/24",0,0,2,"2014-03-24T01:54:16Z","2014-03-24T10:54:16Z",34.68,"[34.68 133.95]",133.95,NA,"(GMT+09:00) Asia/Tokyo",49.8,0,0,"Run",NA,NA
"67",0,0,"Killeen","United States",0,2,"M","TX",1,NA,NA,2.806,NA,NA,0,0,NA,3005.5,1083,338.2,305.5,"[31.08 -97.84]",0,"",0,0,NA,2,"Killeen","United States","Texas",0,NA,3.9,NA,1071,"Lunch Run (Feeling Good)",0,0,2,"2015-04-21T16:37:04Z","2015-04-21T11:37:04Z",31.08,"[31.08 -97.84]",-97.84,NA,"(GMT-06:00) America/Chicago",32.7,0,0,"Run",NA,0
"68",0,1,"Mill Valley","United States",1,2,"M","CA",1,NA,NA,3.592,NA,NA,0,0,NA,10230.1,4354,53.6,36,"[37.77 -122.46]",0,"g352543",0,0,NA,6,"San Francisco","United States","CA",0,NA,4.9,NA,2848,"3 x (1200m, 1000m, 800m), recover 1:1",0,0,2,"2014-07-10T15:01:30Z","2014-07-10T08:01:30Z",37.77,"[37.77 -122.46]",-122.46,NA,"(GMT-08:00) America/Los_Angeles",17.4,0,0,"Run",NA,0
"69",2,1,"Palo Alto","United States",1,2,"M","CA",1,NA,NA,3.048,NA,NA,0,0,NA,7159.8,2367,41.4,13.8,"[37.41 -122.13]",0,"",0,0,NA,0,"Palo Alto","United States","CA",0,NA,4.2,NA,2349,"Morning Run",0,0,2,"2015-06-26T13:06:48Z","2015-06-26T06:06:48Z",37.41,"[37.41 -122.13]",-122.13,NA,"(GMT-08:00) America/Los_Angeles",27.2,0,0,"Run",NA,0
"70",7,0,"Denver","United States",0,2,"M","Colorado",1,83.4,154.5,3.722,NA,NA,0,0,NA,14716.3,4046,1677.1,1669.8,"[39.65 -104.95]",0,"",1,0,NA,4,"Cherry Hills Village","United States","Colorado",0,205,4.9,NA,3954,"Sometimes you go to a rap concert, drink too much, and get worked on a run by your girlfriend the next day. ",0,0,2,"2015-08-26T22:46:38Z","2015-08-26T16:46:38Z",39.65,"[39.65 -104.95]",-104.95,NA,"(GMT-07:00) America/Denver",0,0,0,"Run",NA,0
"71",0,0,"習志野市","日本",0,2,"M","千葉県",1,NA,156.4,3.164,NA,NA,0,0,NA,11133.1,3519,29.9,4,"[35.69 140.05]",0,"",1,0,NA,0,"Japan","Japan","Chiba",0,172,4.4,NA,3519,"04/23/2015 Japan, Chiba, Japan",0,0,2,"2015-04-23T12:32:07Z","2015-04-23T21:32:07Z",35.69,"[35.69 140.05]",140.05,NA,"(GMT+09:00) Asia/Tokyo",26.5,0,0,"Run",NA,NA
"72",6,0,"Auburn","United States",0,2,"M","California",1,NA,NA,2.457,NA,NA,0,0,NA,6803.5,2922,412.7,163.7,"[38.91 -121.04]",0,"",0,0,NA,2,"Auburn","United States","California",0,NA,4.7,NA,2769,"Afternoon Run",0,0,2,"2015-12-11T22:39:09Z","2015-12-11T14:39:09Z",38.91,"[38.91 -121.04]",-121.04,NA,"(GMT-08:00) America/Los_Angeles",260.2,1,0,"Run",NA,0
"73",0,0,"New York","United States",0,2,"M","New York",1,NA,NA,2.682,NA,NA,0,0,NA,10997.3,4228,2,-0.3,"[40.57 -73.99]",0,"",0,0,NA,0,"Brooklyn","United States","New York",0,NA,4.4,NA,4101,"Lunch Run",0,0,2,"2015-12-31T17:19:00Z","2015-12-31T12:19:00Z",40.57,"[40.57 -73.99]",-73.99,NA,"(GMT-05:00) America/New_York",0,0,0,"Run",NA,0
"74",2,0,"Washington","United States",0,2,"M","District of Columbia",1,NA,NA,3.741,NA,NA,0,0,NA,6497.5,1859,106.1,7.4,"[38.96 -77.08]",0,"g662311",0,0,NA,0,"Washington","United States","District of Columbia",0,NA,14.1,NA,1737,"03/10/2015 Washington, District of Columbia",0,0,2,"2015-03-10T23:51:39Z","2015-03-10T19:51:39Z",38.92,"[38.92 -77.04]",-77.04,NA,"(GMT-05:00) America/New_York",138.3,0,0,"Run",NA,0
"75",0,1,"Atlanta ","United States",1,2,"M","GA",1,NA,NA,3.576,NA,NA,0,0,NA,9656.1,2700,NA,NA,"",0,"g761069",0,0,NA,0,"","United States","",1,NA,0,NA,2700,"Evening Run Treadmill ",0,0,2,"2015-05-23T23:10:42Z","2015-05-23T19:10:42Z",NA,"",NA,NA,"(GMT-05:00) America/New_York",0,0,0,"Run",NA,NA
"76",0,1,"Palm Beach Gardens","United States",1,2,"M","Florida",1,NA,NA,2.911,NA,NA,0,0,NA,3795.4,1304,4,3,"[26.87 -80.1]",0,"",0,0,NA,0,"Palm Beach Gardens","United States","FL",0,NA,4.6,NA,1304,"Morning Run",0,0,2,"2014-09-15T11:26:17Z","2014-09-15T07:26:17Z",26.87,"[26.87 -80.1]",-80.1,NA,"(GMT-05:00) America/New_York",0,0,0,"Run",NA,0
"77",4,0,"Istanbul","Turkey",0,2,"M","",1,NA,NA,1.836,NA,NA,0,0,NA,6060.1,4427,12,-32.6,"[40.95 29.09]",0,"",0,0,NA,24,"","Turkey","İstanbul",0,NA,4.1,NA,3300,"Bostancı - C.bostan ",0,0,2,"2015-12-03T18:38:44Z","2015-12-03T20:38:44Z",40.95,"[40.95 29.09]",29.09,NA,"(GMT+02:00) Europe/Istanbul",29,0,0,"Run",NA,3
"78",6,1,"Seogwipo Si","South Korea",1,2,"M","Jeju-do",2,NA,NA,3.245,NA,NA,0,0,NA,4111.8,1275,114.3,74.5,"[33.29 126.29]",0,"",0,0,NA,3,"Seogwipo-si","South Korea","Jeju-do",0,NA,5.2,NA,1267,"Morning Run",0,0,2,"2015-04-02T00:02:01Z","2015-04-02T09:02:01Z",33.29,"[33.29 126.29]",126.29,NA,"(GMT+09:00) Asia/Seoul",32.6,0,0,"Run",NA,0
"79",0,0,"Eastbourne","United Kingdom",0,2,"M","England",1,NA,NA,2.881,NA,NA,0,0,NA,9024.6,3174,87.5,6.6,"[50.78 0.25]",0,"",0,0,NA,0,"Eastbourne","United Kingdom","England",0,NA,6.7,NA,3132,"Morning Run",0,0,2,"2014-10-20T06:01:28Z","2014-10-20T07:01:28Z",50.78,"[50.78 0.25]",0.25,NA,"(GMT+00:00) Europe/London",97.5,0,0,"Run",NA,0
"80",0,0,"Petrópolis","Brasil",0,2,"M","Rio de Janeiro",1,NA,NA,1.678,NA,NA,0,0,NA,6396.5,3866,876,833.8,"[-22.54 -43.2]",0,"g1307953",0,0,NA,1,"","Brasil","",0,NA,9.9,NA,3813,"Corrida vespertina",0,0,2,"2016-04-05T20:26:14Z","2016-04-05T17:26:14Z",-22.54,"[-22.54 -43.2]",-43.2,NA,"(GMT-03:00) America/Sao_Paulo",79.7,0,0,"Run",NA,3
"81",2,0,"Austin","United States",0,2,"M","TX",1,NA,NA,3.49,NA,NA,0,0,NA,6037.6,1833,140.6,130.6,"[30.27 -97.75]",0,"",0,0,NA,0,"Austin","United States","TX",0,NA,4.9,NA,1730,"10/03/2014 Austin, TX",0,0,2,"2014-10-03T16:45:11Z","2014-10-03T11:45:11Z",30.27,"[30.27 -97.76]",-97.76,NA,"(GMT-06:00) America/Chicago",0,0,0,"Run",NA,0
"82",1,0,"","Norge",0,2,"M","Sandane ",1,NA,NA,2.352,NA,NA,0,0,NA,14743.1,6540,709.8,3.8,"[61.77 6.21]",0,"",0,0,NA,1,"Sandane","Norway","Sogn og Fjordane",0,NA,4.3,NA,6269,"Arnestadnakken ",0,0,2,"2015-09-05T05:29:06Z","2015-09-05T07:29:06Z",61.77,"[61.77 6.21]",6.21,NA,"(GMT+01:00) Europe/Oslo",849.7,0,0,"Run",NA,0
"83",0,0,"Ixelles","Belgium",0,2,"M","Bruxelles",1,NA,NA,2.817,7,NA,0,0,NA,10789.7,3912,575.8,419.6,"[47.38 8.54]",0,"g402651",0,0,NA,0,"Zurich","Switzerland","ZH",0,NA,4.5,NA,3830,"03/27/2015 Zurich, ZH, Switzerland",0,0,2,"2015-03-27T05:17:59Z","2015-03-27T06:17:59Z",47.38,"[47.38 8.54]",8.54,NA,"(GMT+01:00) Europe/Zurich",186,0,0,"Run",NA,NA
"84",0,0,"Franklin","United States",0,2,"M","WI",1,NA,NA,1.961,NA,NA,0,0,NA,4789.6,2499,243.4,215.7,"[42.93 -88.04]",0,"",0,0,NA,0,"Hales Corners","United States","WI",0,NA,4,NA,2443,"Morning Run",0,0,2,"2014-08-25T10:55:39Z","2014-08-25T05:55:39Z",42.93,"[42.93 -88.04]",-88.04,NA,"(GMT-06:00) America/Chicago",33,0,0,"Run",NA,NA
"85",0,0,"Speers Point","Australia",0,2,"M","New South Wales",10,85.6,177.4,3.922,NA,NA,0,0,NA,5051.7,1288,9.7,1.1,"[-32.97 151.61]",0,"g941971",1,0,NA,2,"Booragul","Australia","New South Wales",0,190,5.6,NA,1288,"Lakemac parkrun ",0,0,2,"2015-10-23T21:01:18Z","2015-10-24T08:01:18Z",-32.97,"[-32.97 151.61]",151.61,NA,"(GMT+10:00) Australia/Sydney",0,0,0,"Run",NA,0
"86",3,0,"Menlo Park","United States",0,2,"M","California",1,NA,NA,2.481,NA,NA,0,0,NA,8238.4,3390,160.9,57.7,"[37.41 -122.19]",0,"",0,0,NA,0,"","United States","California",0,NA,4.9,NA,3321,"Afternoon Run",0,0,2,"2014-12-13T22:15:40Z","2014-12-13T14:15:40Z",37.41,"[37.41 -122.19]",-122.19,NA,"(GMT-08:00) America/Los_Angeles",207.1,0,0,"Run",NA,0
"87",0,0,"Honolulu","United States",0,2,"M","Hawaii",1,NA,NA,3.413,25,NA,0,0,NA,2231.8,693,291,162.4,"[21.32 -157.84]",0,"g255373",0,0,NA,0,"Honolulu","United States","HI",0,NA,4.7,NA,654,"08/04/2013 Honolulu, HI",0,0,2,"2013-08-05T04:43:20Z","2013-08-04T18:43:20Z",21.33,"[21.33 -157.84]",-157.84,NA,"(GMT-10:00) Pacific/Honolulu",5,0,0,"Run",NA,0
"88",2,1,"Austin","United States",1,2,"M","TX",1,79.2,121.7,1.821,NA,NA,0,0,NA,10630.4,8942,220.1,168.4,"[30.24 -97.82]",0,"",1,0,NA,5,"","United States","",0,172,6.1,NA,5838,"Reconnoitering. I found a way down from the look out ",0,0,2,"2016-03-30T22:16:59Z","2016-03-30T17:16:59Z",30.25,"[30.25 -97.82]",-97.82,41,"(GMT-06:00) America/Chicago",141.7,3,0,"Run",NA,0
"89",0,1,"Montrose","United States",1,2,"M","PA",1,86.9,146.3,3.237,18,NA,0,0,NA,12791.1,3981,565,409.6,"[41.83 -75.95]",0,"g636453",1,0,NA,2,"Montrose","United States","Pennsylvania",0,174,6.1,NA,3951,"Lunch Run",0,0,2,"2015-12-12T17:42:55Z","2015-12-12T12:42:55Z",41.83,"[41.83 -75.95]",-75.95,49,"(GMT-05:00) America/New_York",284,0,0,"Run",NA,0
"90",2,1,"Calgary","Canada",1,2,"M","AB",1,NA,NA,3.451,NA,NA,0,0,NA,10194.5,3240,1092.1,1036,"[51.04 -114.07]",0,"",0,0,NA,0,"Calgary","Canada","Alberta",0,NA,16.7,NA,2954,"Start the reverse taper",0,0,2,"2015-08-12T00:20:53Z","2015-08-11T18:20:53Z",51.04,"[51.04 -114.07]",-114.07,NA,"(GMT-07:00) America/Edmonton",138.8,0,0,"Run",NA,0
"91",0,0,"Pittsburgh","United States",0,2,"M","PA",1,NA,NA,3.05,NA,NA,0,0,NA,3229.9,1075,387.5,360,"[40.38 -80.04]",0,"",0,0,NA,0,"Pittsburgh","United States","PA",0,NA,5.2,NA,1059,"Evening Run",0,0,2,"2014-11-09T23:42:08Z","2014-11-09T18:42:08Z",40.39,"[40.39 -80.05]",-80.05,NA,"(GMT-05:00) America/New_York",25.2,0,0,"Run",NA,0
"92",2,0,"Stary Sącz","Polska",0,2,"M","małopolskie",1,NA,NA,2.884,NA,NA,0,0,NA,5869.3,2130,322.2,299.6,"[49.57 20.63]",0,"",0,0,NA,0,"Gmina Stary Sącz","Poland","Lesser Poland Voivodeship",0,NA,5.9,NA,2035,"Evening Run",0,0,2,"2014-09-24T17:23:26Z","2014-09-24T19:23:26Z",49.57,"[49.57 20.63]",20.63,NA,"(GMT+01:00) Europe/Warsaw",32.4,0,0,"Run",NA,0
"93",2,0,"Las Piñas","Philippines",0,2,"M","Metro Manila",1,NA,NA,3.023,NA,NA,0,0,NA,10071.1,3346,61.6,39.2,"[14.39 121.02]",0,"",0,0,NA,0,"Muntinlupa","Philippines","Metro Manila",0,NA,5.8,NA,3332,"Afternoon Run",0,0,2,"2013-08-13T09:28:37Z","2013-08-13T17:28:37Z",14.39,"[14.39 121.01]",121.01,NA,"(GMT+08:00) Asia/Manila",27.9,0,0,"Run",NA,NA
"94",0,1,"Málaga","España",1,2,"M","Andalucía",2,NA,150.1,3.798,NA,NA,0,0,NA,11683.2,3090,11.6,-0.8,"[36.72 -4.39]",0,"",1,0,NA,0,"Málaga","Spain","Andalusia",0,165,7.2,NA,3076,"09/26/2014 Málaga, Andalusia, Spain",0,0,2,"2014-09-26T04:06:03Z","2014-09-26T06:06:03Z",36.72,"[36.72 -4.4]",-4.4,117,"(GMT+01:00) Europe/Madrid",14,0,0,"Run",NA,NA
"95",0,0,"Pearland","United States",0,2,"M","TX",1,NA,148.5,3.412,23,NA,0,0,NA,3244.5,952,4.6,-3.6,"[29.57 -95.43]",0,"g553221",1,0,NA,7,"Pearland","United States","TX",0,157,4.2,NA,951,"Post bike run",0,0,2,"2015-04-10T11:03:26Z","2015-04-10T06:03:26Z",29.56,"[29.56 -95.43]",-95.43,NA,"(GMT-06:00) America/Chicago",4.6,0,0,"Run",NA,0
"96",1,0,"Carina","Australia",0,2,"M","QLD",1,NA,NA,2.47,NA,NA,0,0,NA,3356.2,1366,619.6,597,"[-27.57 151.96]",0,"",0,0,NA,0,"East Toowoomba","Australia","Queensland",0,NA,4.5,NA,1359,"Evening Run",0,0,2,"2015-09-22T08:10:13Z","2015-09-22T18:10:13Z",-27.57,"[-27.57 151.96]",151.96,NA,"(GMT+10:00) Australia/Brisbane",35.9,0,0,"Run",NA,0
"97",11,1,"Redfern","Australia",1,2,"M","NSW",1,NA,NA,1.985,NA,NA,0,0,NA,8230,4682,52.7,32.6,"[-33.89 151.24]",0,"",0,0,NA,0,"Centennial Park","Australia","New South Wales",0,NA,5.2,NA,4146,"Centennial Park with Hubby",0,0,2,"2015-09-05T00:44:05Z","2015-09-05T10:44:05Z",-33.9,"[-33.9 151.24]",151.24,NA,"(GMT+10:00) Australia/Sydney",27.5,1,0,"Run",NA,0
"98",0,1,"Chicago","United States",1,2,"M","IL",1,NA,150.8,3.228,NA,NA,0,0,NA,9457.1,3277,182.1,175.2,"[41.91 -87.64]",0,"g196483",1,0,NA,0,"Chicago","United States","IL",0,168,6.7,NA,2930,"02/14/2014 Chicago, IL",0,0,2,"2014-02-14T16:05:35Z","2014-02-14T10:05:35Z",41.91,"[41.91 -87.64]",-87.64,89,"(GMT-06:00) America/Chicago",0,0,0,"Run",NA,NA
"99",3,0,"Crowthorne","United Kingdom",0,2,"M","England",1,79.1,NA,3.008,NA,NA,0,0,NA,8697,2935,141.7,57.6,"[51.22 -0.59]",0,"",0,0,NA,0,"Guildford","United Kingdom","England",0,NA,4.6,NA,2891,"09/03/2014 Guildford, England, United Kingdom",0,0,2,"2014-09-03T11:15:41Z","2014-09-03T12:15:41Z",51.22,"[51.22 -0.59]",-0.59,NA,"(GMT+00:00) Europe/London",141.3,0,0,"Run",NA,NA
"100",0,1,"Tickhill","United Kingdom",1,2,"M","England",1,86.1,116.1,3.559,NA,NA,0,0,NA,2345.5,659,NA,NA,"",0,"g702286",1,0,NA,0,"","United Kingdom","",0,121,4,NA,659,"warm up in Sandal Beat Woods",0,0,2,"2015-07-14T17:03:54Z","2015-07-14T18:03:54Z",NA,"",NA,7,"(GMT+00:00) Europe/London",0,0,1,"Run",NA,0
"101",0,0,"Fresno","United States",0,2,"M","CA",1,NA,NA,2.994,NA,NA,0,0,NA,11606.4,3910,116.3,107.7,"[36.8 -119.69]",0,"g293482",0,0,NA,0,"Clovis","United States","CA",0,NA,3.5,NA,3877,"Tempo run 07/03/2014 Clovis, CA",0,0,2,"2014-07-03T11:35:31Z","2014-07-03T04:35:31Z",36.8,"[36.8 -119.69]",-119.69,NA,"(GMT-08:00) America/Los_Angeles",0,0,0,"Run",NA,0
"102",0,0,"Whiteley","United Kingdom",0,2,"M","",2,NA,NA,2.278,NA,NA,0,0,NA,4743.7,2194,36,14,"[50.88 -1.25]",0,"",0,0,NA,1,"Whiteley","United Kingdom","",0,NA,4.3,NA,2082,"Evening Run 1",0,0,2,"2015-09-15T17:47:04Z","2015-09-15T18:47:04Z",50.88,"[50.88 -1.25]",-1.25,NA,"(GMT+00:00) Europe/London",16.6,0,0,"Run",NA,0
"103",5,0,"Toulouse","France",0,2,"M","Midi-Pyrénées",1,NA,NA,2.174,NA,NA,1,0,NA,4523.2,2127,223.3,195.1,"[43.68 1.53]",0,"",0,0,NA,0,"Castelmaurou","France","Midi-Pyrénées",0,NA,5,NA,2081,"Course en après-midi",0,0,2,"2014-03-24T13:35:42Z","2014-03-24T14:35:42Z",43.68,"[43.68 1.53]",1.53,NA,"(GMT+01:00) Europe/Paris",31.1,0,0,"Run",NA,NA
"104",2,1,"Amersfoort","Nederland",1,2,"M","UT",1,NA,150.6,2.746,NA,NA,0,0,NA,24691.6,9006,13,-0.8,"[52.19 5.41]",0,"",1,0,NA,1,"Amersfoort","The Netherlands","UT",0,157,7.8,NA,8993,"03/16/2014 Amersfoort, UT, The Netherlands",0,0,2,"2014-03-16T08:05:06Z","2014-03-16T09:05:06Z",52.19,"[52.19 5.41]",5.41,274,"(GMT+01:00) Europe/Amsterdam",13.4,0,0,"Run",NA,2
"105",1,0,"Bonnyrigg","United Kingdom",0,2,"M","Scotland",2,89,NA,3.362,NA,NA,0,0,NA,11693.4,4052,54.7,12,"[55.9 -3.05]",0,"",0,0,NA,0,"","United Kingdom","",0,NA,4.6,NA,3478,"Evening Run",0,0,2,"2016-02-22T19:12:09Z","2016-02-22T19:12:09Z",55.9,"[55.9 -3.05]",-3.05,NA,"(GMT+00:00) Europe/London",42.3,0,0,"Run",NA,NA
"106",3,0,"Lima","Peru",0,2,"M","Lima",1,NA,NA,2.123,NA,NA,0,0,NA,4312.7,2162,317.3,300.2,"[-12.03 -76.94]",0,"",0,0,NA,0,"Lima","Peru","Lima",0,NA,5.8,NA,2031,"Morning Run",0,0,2,"2014-11-10T10:15:40Z","2014-11-10T05:15:40Z",-12.03,"[-12.03 -76.94]",-76.94,NA,"(GMT-05:00) America/Lima",16.5,0,0,"Run",NA,0
"107",0,1,"Zurich","Switzerland",1,2,"M","Zurich",1,NA,NA,3.029,NA,NA,0,0,NA,12572.4,4151,11.6,-1.9,"[37.02 22.12]",0,"",0,0,NA,0,"","Greece","",0,NA,4.7,NA,4151,"04/15/2014 Greece",0,0,2,"2014-04-15T08:22:50Z","2014-04-15T11:22:50Z",37.03,"[37.03 22.1]",22.1,NA,"(GMT+02:00) Europe/Athens",21.4,0,0,"Run",NA,0
"108",0,0,"Lleida","Spain",0,2,"M","Catalonia",1,NA,161.2,3.358,NA,NA,0,0,NA,14500.8,8123,185.3,162.1,"[41.62 0.62]",0,"",1,0,NA,0,"Lleida","Spain","Catalonia",0,180,6.9,NA,4318,"02/11/2013 Lleida, Catalonia, Spain",0,0,2,"2013-02-11T11:16:50Z","2013-02-11T12:16:50Z",41.61,"[41.61 0.62]",0.62,NA,"(GMT+01:00) Europe/Madrid",46.6,0,0,"Run",NA,NA
"109",0,0,"Athens","Greece",0,2,"M","Attica",1,83,143.5,2.866,24,NA,0,0,NA,478.6,167,201,164.2,"[38.03 23.79]",0,"",1,0,NA,0,"Marousi","Greece","Attica",0,154,3.6,NA,167,"Evening Run",0,0,2,"2015-11-17T16:24:34Z","2015-11-17T18:24:34Z",38.03,"[38.03 23.79]",23.79,NA,"(GMT+02:00) Europe/Athens",0,0,0,"Run",NA,NA
"110",0,0,"Toulouse","France",0,2,"M","france",1,NA,NA,3.145,NA,NA,0,0,NA,3506.8,1120,140.8,124.1,"[43.6 1.43]",0,"",0,0,NA,0,"Toulouse","France","Midi-Pyrénées",0,NA,6.9,NA,1115,"Course à pied en soirée",0,0,2,"2016-03-28T18:14:13Z","2016-03-28T20:14:13Z",43.6,"[43.6 1.43]",1.43,NA,"(GMT+01:00) Europe/Paris",15.6,0,0,"Run",NA,0
"111",0,0,"Barueri","Brazil",0,2,"M","São Paulo",1,NA,NA,2.706,NA,NA,0,0,NA,1683.1,1006,766.6,738.5,"[-23.51 -46.88]",0,"",0,0,NA,0,"Barueri","Brazil","São Paulo",0,NA,4.4,NA,622,"Corrida noturna",0,0,2,"2015-12-01T01:24:55Z","2015-11-30T23:24:55Z",-23.51,"[-23.51 -46.88]",-46.88,NA,"(GMT-03:00) America/Sao_Paulo",37.8,0,0,"Run",NA,0
"112",1,0,"","",0,2,"M","",1,NA,NA,2.965,NA,NA,0,0,NA,15001.9,5060,60.6,7,"[-2.52 -44.23]",0,"",0,0,NA,0,"","","",0,NA,3.6,NA,5060,"Morning Run",0,0,2,"2016-01-14T08:09:45Z","2016-01-14T05:09:45Z",-2.52,"[-2.52 -44.23]",-44.23,NA,"(GMT-03:00) America/Fortaleza",97,0,0,"Run",NA,0
"113",0,0,"Kurashiki","Japan",0,2,"M","Okayama Prefecture",1,NA,162.7,2.939,NA,NA,0,0,NA,21684.5,7891,7.8,-0.9,"[34.54 133.75]",0,"",1,0,NA,0,"Kurashiki-shi","Japan","Okayama-ken",0,186,3.7,NA,7377,"朝のランニング",0,0,2,"2015-11-20T20:22:45Z","2015-11-21T05:22:45Z",34.54,"[34.54 133.75]",133.75,NA,"(GMT+09:00) Asia/Tokyo",0,0,0,"Run",NA,0
"114",1,0,"Basel","Switzerland",0,2,"M","Basel-Stadt",1,92.4,147.5,3.487,NA,NA,0,0,NA,9952,2930,20.4,6,"[48.32 -70.86]",0,"",1,0,NA,10,"Saguenay","Canada","Québec",0,177,5.9,NA,2854,"Baie des Ha! Ha!",0,0,2,"2015-07-14T10:52:46Z","2015-07-14T06:52:46Z",48.32,"[48.32 -70.86]",-70.86,NA,"(GMT-05:00) America/Toronto",42,0,0,"Run",NA,0
"115",3,0,"Lisbon","Portugal",0,2,"M","",1,NA,160.3,2.923,21,NA,0,0,NA,10556.2,3708,199.8,70,"[38.74 -9.22]",0,"g291304",1,0,NA,9,"Amadora","Portugal","Lisbon District",0,182,8,NA,3612,"28/10/2014 Amadora, Lisbon District, Portugal",0,0,2,"2014-10-28T19:00:35Z","2014-10-28T19:00:35Z",38.74,"[38.74 -9.22]",-9.22,NA,"(GMT+00:00) Europe/Lisbon",243.8,0,0,"Run",NA,0
"116",1,0,"San Francisco","United States",0,2,"M","CA",1,69.4,NA,1.897,NA,NA,0,0,NA,12563.3,6840,91.6,14,"[19.14 72.87]",0,"g922298",0,0,NA,0,"","United States","",0,NA,3.1,NA,6622,"Morning Run",0,0,2,"2016-01-31T00:34:41Z","2016-01-31T06:04:41Z",19.14,"[19.14 72.87]",72.87,NA,"(GMT+05:30) Asia/Kolkata",155.4,0,0,"Run",NA,NA
"117",1,0,"Nashville","United States",0,2,"M","TN",1,83.5,NA,2.278,NA,NA,0,0,NA,6361.3,3264,203.7,165.4,"[36.13 -86.81]",0,"g644762",0,0,NA,0,"Nashville","United States","TN",0,NA,21.9,NA,2792,"04/10/2015 Nashville, TN",0,0,2,"2015-04-10T10:13:11Z","2015-04-10T05:13:11Z",36.13,"[36.13 -86.81]",-86.81,NA,"(GMT-06:00) America/Chicago",74.1,0,0,"Run",NA,NA
"118",5,0,"Mantes La Ville","France",0,2,"M","IDF",1,83.4,173.1,3.74,NA,NA,0,0,NA,8053.2,2153,64,32,"[48.97 1.71]",0,"g466095",1,0,NA,0,"Mantes La Ville","France","IDF",0,185,5.3,NA,2153,"8km tour 1 ",0,0,2,"2014-11-13T21:01:49Z","2014-11-13T22:01:49Z",48.97,"[48.97 1.71]",1.71,NA,"(GMT+01:00) Europe/Paris",82,0,0,"Run",NA,0
"119",12,0,"Bengaluru","Indien",0,2,"M","Karnataka",2,NA,NA,5.427,NA,NA,0,0,NA,41745.5,8103,921,859,"[12.96 77.74]",0,"",0,0,NA,0,"Bengaluru","India","Karnataka",0,NA,9.8,NA,7692,"03/28/2015 Bengaluru, Karnataka, India",0,0,2,"2015-03-28T02:34:21Z","2015-03-28T08:04:21Z",12.96,"[12.96 77.74]",77.74,NA,"(GMT+05:30) Asia/Kolkata",183.7,0,0,"Run",NA,NA
"120",2,0,"Rio De Janeiro","Brazil",0,2,"M","RJ",1,76.3,156.8,2.905,NA,NA,0,0,NA,8317.7,2863,30.4,17.6,"[-22.98 -43.21]",0,"",1,0,NA,0,"Rio de Janeiro","Brazil","Rio de Janeiro",0,172,3.7,NA,2863,"Morning Run",0,0,2,"2015-10-09T09:21:34Z","2015-10-09T06:21:34Z",-22.98,"[-22.98 -43.21]",-43.21,NA,"(GMT-03:00) America/Sao_Paulo",8,0,0,"Run",NA,NA
"121",0,0,"Sydney","Australia",0,2,"M","NSW",1,NA,NA,3.015,NA,NA,0,0,NA,5200.3,1725,63.8,48.2,"[-33.75 150.92]",0,"",0,0,NA,0,"Kings Park","Australia","New South Wales",0,NA,3.8,NA,1725,"04/03/2014 Kings Park, New South Wales, Australia",0,0,2,"2014-04-02T19:06:07Z","2014-04-03T06:06:07Z",-33.75,"[-33.75 150.92]",150.92,NA,"(GMT+10:00) Australia/Sydney",14.7,0,0,"Run",NA,NA
"122",1,0,"Oakland","United States",0,2,"M","CA",1,85.5,NA,3.205,NA,NA,0,0,NA,11277.7,3731,15.8,0,"[37.66 -122.4]",0,"",0,0,NA,0,"South San Francisco","United States","California",0,NA,4.5,NA,3519,"03/27/2015 South San Francisco, California",0,0,2,"2015-03-27T23:52:42Z","2015-03-27T16:52:42Z",37.66,"[37.66 -122.4]",-122.4,NA,"(GMT-08:00) America/Los_Angeles",14.1,0,0,"Run",NA,NA
"123",0,0,"Sydney","Australia",0,2,"M","NSW",1,NA,NA,2.758,NA,NA,0,0,NA,4371.4,1589,41,27.9,"[-33.71 150.88]",0,"",0,0,NA,0,"Quakers Hill","Australia","New South Wales",0,NA,5.1,NA,1585,"Afternoon Run",0,0,2,"2016-01-11T06:24:56Z","2016-01-11T17:24:56Z",-33.71,"[-33.71 150.88]",150.88,NA,"(GMT+10:00) Australia/Sydney",12.6,0,0,"Run",NA,NA
"124",17,0,"Eindhoven","The Netherlands",0,2,"M","NB",1,NA,140.1,3.473,NA,NA,0,0,NA,35203.9,10156,28.7,3,"[52.38 4.53]",0,"",1,0,NA,0,"Zandvoort","The Netherlands","NH",0,160,5,NA,10136,"10 km Z0- 5 km Z1- 10 km Z2 - 10 km Z0",0,0,2,"2014-07-27T15:47:37Z","2014-07-27T17:47:37Z",52.38,"[52.38 4.53]",4.53,NA,"(GMT+01:00) Europe/Amsterdam",134.7,0,0,"Run",NA,0
"125",0,0,"Colwyn Bay","United Kingdom",0,2,"M","Conwy",1,88.4,NA,3.134,NA,NA,0,0,NA,4002.6,1277,37,1.5,"[53.29 -3.8]",0,"",0,0,NA,4,"","United Kingdom","",0,NA,5.5,NA,1277,"Afternoon Run",0,0,2,"2016-03-21T14:11:10Z","2016-03-21T14:11:10Z",53.29,"[53.29 -3.81]",-3.81,NA,"(GMT+00:00) Europe/London",45.2,0,0,"Run",NA,NA
"126",2,0,"Redditch","United Kingdom",0,2,"M","",1,NA,139.1,2.563,NA,NA,0,0,NA,2252.9,890,168.1,140.2,"[52.48 -1.9]",0,"",1,0,NA,0,"Birmingham","United Kingdom","",0,161,3.8,NA,879,"Morning Run",0,0,2,"2015-09-28T05:42:35Z","2015-09-28T06:42:35Z",52.47,"[52.47 -1.92]",-1.92,NA,"(GMT+00:00) Europe/London",10.5,0,0,"Run",NA,NA
"127",0,0,"Gigean","France",0,2,"M","Languedoc-Roussillon",1,NA,NA,3.164,NA,NA,0,0,NA,8788.4,2829,49.7,22.3,"[43.58 3.82]",0,"g1173654",0,0,NA,0,"","France","",0,NA,5.2,NA,2778,"Course à pied le soir",0,0,2,"2016-04-07T17:17:13Z","2016-04-07T19:17:13Z",43.58,"[43.58 3.8]",3.8,NA,"(GMT+01:00) Europe/Paris",21.2,0,0,"Run",NA,NA
"128",1,0,"São Paulo","Brazil",0,2,"M","SP",1,NA,NA,2.059,NA,NA,0,0,NA,11177.2,5887,739,731.8,"[-23.53 -46.59]",0,"",0,0,NA,0,"São Paulo","Brazil","SP",0,NA,6,NA,5428,"Corrida noturna",0,0,2,"2014-02-27T01:01:42Z","2014-02-26T22:01:42Z",-23.54,"[-23.54 -46.59]",-46.59,NA,"(GMT-03:00) America/Sao_Paulo",0,0,0,"Run",NA,NA
"129",0,0,"","Italy",0,2,"M","Lazio",1,NA,NA,3.195,NA,NA,0,0,NA,7982.1,2508,72,50.2,"[41.96 12.76]",0,"",0,0,NA,0,"Villanova","Italy","Lazio",0,NA,5,NA,2498,"Corsa pomeridiana dopo ultima infiltrazione e poi....",0,0,2,"2015-11-28T16:23:25Z","2015-11-28T17:23:25Z",41.96,"[41.96 12.75]",12.75,NA,"(GMT+01:00) Europe/Rome",11.4,0,0,"Run",NA,0
"130",1,0,"Coimbra","Portugal",0,2,"M","Coimbra District",1,84.7,NA,3.162,17,NA,0,0,NA,21141.8,6691,69,26.2,"[40.49 -8.58]",0,"",0,0,NA,4,"","Portugal","",0,NA,4.6,NA,6687,"Morning Run",0,0,2,"2016-03-27T07:28:05Z","2016-03-27T08:28:05Z",40.49,"[40.49 -8.58]",-8.58,NA,"(GMT+00:00) Europe/Lisbon",116,0,0,"Run",NA,NA
"131",0,0,"Mexicali","United States",0,2,"M","BC",62,NA,166.5,3.036,NA,NA,0,0,NA,10129.6,3336,13.3,-1.5,"[39.45 -0.35]",0,"g527807",1,0,NA,0,"València","Spain","Comunidad Valenciana",0,184,4.4,NA,3336,"Morning Run",0,0,2,"2015-11-15T08:00:50Z","2015-11-15T09:00:50Z",39.46,"[39.46 -0.36]",-0.36,NA,"(GMT+01:00) Europe/Madrid",12.7,0,0,"Run",NA,NA
"132",0,0,"Baton Rouge","United States",0,2,"M","LA",1,70.4,NA,3.214,NA,NA,0,0,NA,6440.7,2075,11,5.9,"[30.41 -91.16]",0,"g517957",0,0,NA,1,"Baton Rouge","United States","LA",0,NA,4.8,NA,2004,"Laker Lila",0,0,2,"2015-04-20T20:46:37Z","2015-04-20T15:46:37Z",30.41,"[30.41 -91.16]",-91.16,NA,"(GMT-06:00) America/Chicago",0,1,0,"Run",NA,0
"133",0,0,"Vlaardingen","Nederland",0,2,"M","ZH",7,84.9,NA,3.117,NA,NA,4,0,NA,11694.6,4363,8,0,"[51.9 4.34]",0,"",0,0,NA,6,"Vlaardingen","Netherlands","Zuid-Holland",0,NA,4.9,NA,3752,"Middagloop",0,0,2,"2016-01-26T11:18:21Z","2016-01-26T12:18:21Z",51.9,"[51.9 4.34]",4.34,NA,"(GMT+01:00) Europe/Amsterdam",0,0,0,"Run",NA,NA
"134",0,0,"Caulfield South","Australia",0,2,"M","VIC",1,NA,NA,3.36,NA,NA,0,0,NA,5148,1593,14.3,5.1,"[-16.51 145.46]",0,"",0,0,NA,0,"Port Douglas","Australia","Queensland",0,NA,6,NA,1532,"Morning Run",0,0,2,"2014-09-24T22:20:45Z","2014-09-25T08:20:45Z",-16.51,"[-16.51 145.46]",145.46,NA,"(GMT+10:00) Australia/Brisbane",0,0,0,"Run",NA,0
"135",4,1,"Utrecht","Netherlands",1,2,"M","UT",1,NA,109.3,1.808,NA,NA,0,0,NA,4279.7,2760,5.5,1.5,"[52.11 5.13]",0,"",1,0,NA,0,"Utrecht","Netherlands","Utrecht",0,145,4.2,NA,2367,"Naamloos",0,0,2,"2012-10-21T08:54:41Z","2012-10-21T10:54:41Z",52.11,"[52.11 5.13]",5.13,26,"(GMT+01:00) Europe/Amsterdam",0,0,0,"Run",NA,NA
"136",1,0,"Cambridge","United States",0,2,"M","MA",1,91.5,144.7,2.961,NA,NA,0,0,NA,10306.8,3608,88,14.6,"[42.34 -71.13]",0,"g1297560",1,0,NA,2,"Brookline","United States","Massachusetts",0,171,4.4,NA,3481,"Evening Run",0,0,2,"2016-03-18T22:21:14Z","2016-03-18T18:21:14Z",42.34,"[42.34 -71.13]",-71.13,NA,"(GMT-05:00) America/New_York",169.9,0,0,"Run",NA,0
"137",0,0,"Sherman","United States",0,2,"M","TX",1,85.3,131.2,3.138,15,NA,0,0,NA,6470.2,2149,195.4,72,"[33.64 -96.63]",0,"g856363",1,0,NA,1,"Sherman","United States","TX",0,157,4.6,NA,2062,"Morning Run",0,0,2,"2015-11-14T15:08:42Z","2015-11-14T09:08:42Z",33.64,"[33.64 -96.63]",-96.63,NA,"(GMT-06:00) America/Chicago",43,0,0,"Run",NA,NA
"138",0,1,"Willow Grove","United States",1,2,"M","PA",1,NA,NA,3.102,NA,NA,0,0,NA,2813.7,1175,56.2,39.4,"[40.16 -75.08]",0,"",0,0,NA,2,"","United States","Pennsylvania",0,NA,5.1,NA,907,"Easter trail run 2nd half",0,0,2,"2015-04-05T16:24:27Z","2015-04-05T12:24:27Z",40.14,"[40.14 -75.07]",-75.07,NA,"(GMT-05:00) America/New_York",11.3,0,0,"Run",NA,0
"139",0,1,"Wyckoff","United States",1,2,"M","NJ",1,85.4,151.1,2.731,NA,NA,0,0,NA,9811.5,3661,38.8,26.8,"[40.96 -74.11]",0,"",1,0,NA,0,"Glen Rock","United States","New Jersey",0,162,4.2,NA,3593,"Glen Rock Running",0,0,2,"2016-04-12T22:24:38Z","2016-04-12T18:24:38Z",40.96,"[40.96 -74.11]",-74.11,94,"(GMT-05:00) America/New_York",28.8,0,0,"Run",NA,NA
"140",0,0,"Cremona, Italy","Italy",0,2,"M","Lombardy",1,NA,NA,2.805,NA,NA,0,0,NA,7991.5,2866,91,83.9,"[45.36 9.34]",0,"",0,0,NA,0,"Vizzolo Predabissi","Italy","Lombardy",0,NA,8,NA,2849,"Corsa all'ora di pranzo",0,0,2,"2015-01-26T11:34:00Z","2015-01-26T12:34:00Z",45.35,"[45.35 9.34]",9.34,NA,"(GMT+01:00) Europe/Rome",0,0,0,"Run",NA,0
"141",9,0,"Courbevoie","France",0,2,"M","IDF",2,NA,172.5,3.434,NA,NA,4,0,NA,7290.5,2123,134.9,80,"[49.31 1.61]",0,"",1,0,NA,3,"Étrépagny","France","Haute-Normandie",0,191,5.8,NA,2123,"28/04/2015 Étrépagny, Haute-Normandie, France",0,0,2,"2015-04-28T10:24:41Z","2015-04-28T12:24:41Z",49.31,"[49.31 1.61]",1.61,NA,"(GMT+01:00) Europe/Paris",51.6,0,0,"Run",NA,3
"142",13,0,"Bahrs Scrub","",0,2,"M","Queensland ",1,NA,NA,2.687,NA,NA,0,0,NA,9182.9,3449,39.6,-2.1,"[-31.99 115.75]",0,"",0,0,NA,0,"Cottesloe","Australia","Western Australia",0,NA,5.2,NA,3417,"Afternoon Run",0,0,2,"2015-07-30T08:10:24Z","2015-07-30T16:10:24Z",-31.99,"[-31.99 115.75]",115.75,NA,"(GMT+08:00) Australia/Perth",221.8,0,0,"Run",NA,0
"143",0,0,"Los Gatos","United States",0,2,"M","CA",1,NA,NA,1.736,NA,NA,0,0,NA,2642.7,1957,531.3,473.3,"[37.16 -122]",0,"",0,0,NA,0,"Los Gatos","United States","CA",0,NA,5.1,NA,1522,"Evening Run",0,0,2,"2016-03-22T02:18:23Z","2016-03-21T19:18:23Z",37.16,"[37.16 -122]",-122,NA,"(GMT-08:00) America/Los_Angeles",95,0,0,"Run",NA,0
"144",6,0,"London EC2M, UK","United Kingdom",0,2,"M","England",1,84.4,NA,3.369,NA,NA,0,0,NA,5501.1,2049,44.4,26.7,"[51.44 -0.15]",0,"",0,0,NA,0,"London, UK","United Kingdom","England",0,NA,4.9,NA,1633,"05/17/2015 London, UK, England, United Kingdom",0,0,2,"2015-05-17T13:44:27Z","2015-05-17T14:44:27Z",51.44,"[51.44 -0.14]",-0.14,NA,"(GMT+00:00) Europe/London",21.4,0,0,"Run",NA,NA
"145",0,0,"Gainesville","United States",0,2,"M","Florida",1,NA,NA,3.568,NA,NA,0,0,NA,3215,901,30.9,21,"[29.64 -82.37]",0,"",0,0,NA,0,"Gainesville","United States","Florida",0,NA,4.5,NA,901,"05/13/2015 Gainesville, Florida",0,0,2,"2015-05-13T22:41:56Z","2015-05-13T18:41:56Z",29.65,"[29.65 -82.36]",-82.36,NA,"(GMT-05:00) America/New_York",0,0,0,"Run",NA,NA
"146",0,0,"","United States",0,2,"M","",1,NA,NA,3.51,NA,NA,0,0,NA,3854.3,1098,51.7,42.2,"[41 -73.88]",0,"",0,0,NA,0,"Yonkers","United States","NY",0,NA,4.7,NA,1098,"Afternoon Run",0,0,2,"2014-12-02T22:32:24Z","2014-12-02T17:32:24Z",41,"[41 -73.88]",-73.88,NA,"(GMT-05:00) America/New_York",0,0,0,"Run",NA,0
"147",0,0,"Middelkerke","België",0,2,"M","Vlaams Gewest",1,NA,NA,3.16,NA,NA,0,0,NA,7252,2295,NA,NA,"",0,"",NA,0,NA,0,"","België","",1,NA,0,NA,2295,"Naamloos",0,0,2,"2012-03-11T17:33:50Z","2012-03-11T18:33:50Z",NA,"",NA,NA,"(GMT+01:00) Europe/Brussels",0,0,0,"Run",NA,NA
"148",0,1,"Biddeford","United States",1,2,"M","ME",2,79.7,NA,2.263,NA,NA,0,0,NA,7975.5,3867,67,39,"[43.47 -70.45]",0,"g629164",0,0,NA,3,"Biddeford","United States","ME",0,NA,3.9,NA,3524,"Trail maintenance and fun with Son! ",0,0,2,"2015-04-30T09:44:21Z","2015-04-30T05:44:21Z",43.47,"[43.47 -70.45]",-70.45,NA,"(GMT-05:00) America/New_York",129.6,0,0,"Run",NA,0
"149",0,0,"Sonoma","United States",0,2,"M","California",1,NA,NA,1.316,NA,NA,0,0,NA,4300.3,3531,167.1,8.4,"[38.01 -122.52]",0,"g49265",0,0,NA,0,"San Rafael","United States","California",0,NA,4.9,NA,3267,"7-11",0,0,2,"2015-01-07T00:41:07Z","2015-01-06T16:41:07Z",38.01,"[38.01 -122.52]",-122.52,NA,"(GMT-08:00) America/Los_Angeles",156.5,0,0,"Run",NA,0
"150",0,0,"Warrington","United Kingdom",0,2,"M","",2,NA,155.1,3.122,NA,NA,0,0,NA,2216.5,744,77.8,50.8,"[53.41 -2.73]",0,"",1,0,NA,0,"Sutton Manor","United Kingdom","",0,167,3.4,NA,710,"Morning Run",0,0,2,"2015-10-10T09:32:59Z","2015-10-10T10:32:59Z",53.41,"[53.41 -2.73]",-2.73,NA,"(GMT+00:00) Europe/London",18.5,0,0,"Run",NA,NA
"151",0,1,"Munich","Germany",1,2,"M","Bavaria",1,NA,135.5,3.641,NA,NA,0,0,NA,12791.2,3559,82.9,45,"[39.33 -76.61]",0,"g938346",1,0,NA,0,"Baltimore","United States","MD",0,153,5.5,NA,3513,"Easy run w/ Alex",0,0,2,"2015-10-09T11:06:35Z","2015-10-09T07:06:35Z",39.33,"[39.33 -76.61]",-76.61,61,"(GMT-05:00) America/New_York",104.2,0,0,"Run",NA,NA
"152",0,0,"South Australia, Australia","Australia",0,2,"M","SA",1,NA,NA,2.558,NA,NA,0,0,NA,6869.7,2686,25.5,-0.9,"[-33.87 151.16]",0,"",0,0,NA,0,"Lilyfield","Australia","New South Wales",0,NA,4.2,NA,2686,"Evening Run",0,0,2,"2015-12-15T07:04:21Z","2015-12-15T18:04:21Z",-33.87,"[-33.87 151.16]",151.16,NA,"(GMT+10:00) Australia/Sydney",63.5,0,0,"Run",NA,0
"153",1,0,"ingleby barwick","United Kingdom",0,2,"M","Stockton-on-Tees",1,NA,NA,3.365,NA,NA,1,0,NA,10528.3,3134,36,25.5,"[54.51 -1.33]",0,"",0,0,NA,10,"Stockton On Tees","United Kingdom","Stockton-on-Tees",0,NA,4.4,NA,3129,"Chasing rainbow",0,0,2,"2015-01-13T15:37:50Z","2015-01-13T15:37:50Z",54.51,"[54.51 -1.33]",-1.33,NA,"(GMT+00:00) Europe/London",10.4,0,0,"Run",NA,0
"154",0,0,"Giffaumont Champaubert","France",0,2,"M","Champagne-Ardenne",1,80.2,138,3.213,NA,NA,0,0,NA,2892.1,900,134.8,119.2,"[48.55 4.75]",0,"",1,0,NA,0,"Giffaumont-Champaubert","France","Champagne-Ardenne",0,149,3.7,NA,900,"06/30/2015 Giffaumont-Champaubert, Champagne-Ardenne, France",0,0,2,"2015-06-30T17:52:17Z","2015-06-30T19:52:17Z",48.55,"[48.55 4.75]",4.75,NA,"(GMT+01:00) Europe/Paris",15,0,0,"Run",NA,NA
"155",1,0,"Los Gatos","United States",0,2,"M","CA",1,NA,NA,2.772,NA,NA,0,0,NA,8761.7,3185,271.2,107.9,"[37.22 -121.98]",0,"",0,0,NA,2,"Los Gatos","United States","CA",0,NA,6,NA,3161,"Afternoon Run",0,0,2,"2015-12-10T23:41:50Z","2015-12-10T15:41:50Z",37.23,"[37.23 -121.99]",-121.99,NA,"(GMT-08:00) America/Los_Angeles",211.3,0,0,"Run",NA,0
"156",0,1,"London, UK","United Kingdom",1,2,"M","England",1,NA,139.1,1.832,NA,NA,0,0,NA,1458.2,796,3,0.8,"[48.83 2.27]",0,"",1,0,NA,0,"Paris","France","IDF",0,144,2.1,NA,796,"01/05/2013 Paris, IDF, France",0,0,2,"2013-01-05T10:23:09Z","2013-01-05T11:23:09Z",48.83,"[48.83 2.27]",2.27,13,"(GMT+01:00) Europe/Paris",0,0,0,"Run",NA,NA
"157",18,0,"Derby","United Kingdom",0,2,"M","",1,NA,NA,3.343,NA,NA,0,0,NA,13256.9,3977,166.9,129.5,"[53.26 -2.12]",0,"",0,0,NA,1,"Macclesfield","United Kingdom","",0,NA,6.7,NA,3965,"2nd 10k of the week ",0,0,2,"2015-08-20T18:39:04Z","2015-08-20T19:39:04Z",53.26,"[53.26 -2.12]",-2.12,NA,"(GMT+00:00) Europe/London",56.5,0,0,"Run",NA,0
"158",4,0,"Jasin","Poland",0,2,"M","wielkopolskie",1,NA,NA,3.045,NA,NA,0,0,NA,2204.9,724,78.7,69.8,"[52.4 17.02]",0,"",0,0,NA,0,"","Poland","",0,NA,8.4,NA,724,"Na dojebanie",0,0,2,"2016-02-28T11:58:32Z","2016-02-28T12:58:32Z",52.4,"[52.4 17.02]",17.02,NA,"(GMT+01:00) Europe/Warsaw",0,0,0,"Run",NA,0
"159",1,0,"Montréal","Canada",0,2,"M","Québec",6,80,NA,2.813,NA,NA,0,0,NA,15585.4,6865,230,58,"[45.53 -73.59]",0,"",0,0,NA,21,"Montreal","Canada","QC",0,NA,5.3,NA,5540,"Sortie CTM groupe B",0,0,2,"2016-02-23T22:48:03Z","2016-02-23T17:48:03Z",45.53,"[45.53 -73.58]",-73.58,NA,"(GMT-05:00) America/Montreal",474,0,0,"Run",NA,NA
"160",2,0,"San Clemente","United States",0,2,"M","CA",1,NA,NA,3.64,NA,NA,0,0,NA,8813.5,2421,133.9,46.1,"[33.65 -117.76]",0,"",0,0,NA,0,"Irvine","United States","CA",0,NA,7.8,NA,2421,"Afternoon Run",0,0,2,"2014-03-08T00:15:29Z","2014-03-07T16:15:29Z",33.65,"[33.65 -117.75]",-117.75,NA,"(GMT-08:00) America/Los_Angeles",140.2,0,0,"Run",NA,NA
"161",0,0,"Beaver","United States",0,2,"M","Pennsylvania",1,NA,NA,2.119,NA,NA,0,0,NA,6753.3,3246,252.2,228,"[40.7 -80.31]",0,"",0,0,NA,0,"Beaver","United States","Pennsylvania",0,NA,4.8,NA,3187,"03/07/2012 Beaver, Pennsylvania",0,0,2,"2012-03-07T20:51:56Z","2012-03-07T15:51:56Z",40.7,"[40.7 -80.31]",-80.31,NA,"(GMT-05:00) America/New_York",13.7,0,0,"Run",NA,NA
"162",1,1,"Vitoria","República Federativa do Brasil",1,2,"M","ES",1,NA,NA,2.127,NA,NA,0,0,NA,7587.7,4336,13.3,-1.9,"[-20.28 -40.29]",0,"",0,0,NA,26,"Vitória","Brazil","Espírito Santo",0,NA,4,NA,3567,"Corrida no entardecer",0,0,2,"2014-12-29T21:40:44Z","2014-12-29T19:40:44Z",-20.28,"[-20.28 -40.29]",-40.29,NA,"(GMT-03:00) America/Sao_Paulo",12.1,0,0,"Run",NA,0
"163",3,0,"Belrose","Australia",0,2,"M","NSW",1,80.7,169.7,3.183,NA,NA,0,0,NA,8547.6,2785,33,3.1,"[-33.72 151.27]",0,"g434349",1,0,NA,0,"Cromer","Australia","NSW",0,175,4.3,NA,2685,"28/02/15 new Narrabeen loop",0,0,2,"2015-02-27T20:08:04Z","2015-02-28T07:08:04Z",-33.72,"[-33.72 151.27]",151.27,NA,"(GMT+10:00) Australia/Sydney",67.4,0,0,"Run",NA,0
"164",5,0,"Winchester","United Kingdom",0,2,"M","Hampshire",1,NA,NA,3.37,NA,NA,0,0,NA,10015.1,2980,12.8,-1.7,"[51.5 -0.26]",0,"",0,0,NA,3,"London","United Kingdom","",0,NA,11.5,NA,2972,"Morning Run",0,0,2,"2015-01-17T09:57:47Z","2015-01-17T09:57:47Z",51.5,"[51.5 -0.26]",-0.26,NA,"(GMT+00:00) Europe/London",21.8,0,0,"Run",NA,0
"165",0,0,"Evansville","United States",0,2,"M","IN",2,NA,NA,2.131,NA,NA,0,0,NA,2687,2099,147.3,126,"[37.79 -87.2]",0,"g776316",0,0,NA,6,"Owensboro","United States","Kentucky",0,NA,3.2,NA,1261,"Spooky Warm up",0,0,2,"2015-10-18T19:21:17Z","2015-10-18T14:21:17Z",37.79,"[37.79 -87.2]",-87.2,NA,"(GMT-06:00) America/Chicago",35.8,0,0,"Run",NA,NA
"166",23,0,"Wheelers Hill","Australia",0,2,"M","VIC",2,NA,146.5,3.372,NA,NA,0,0,NA,9421.7,2858,40.2,2.5,"[-37.82 144.95]",0,"g289232",1,0,NA,1,"Docklands","Australia","VIC",0,168,5.4,NA,2794,"08/08/2014 Lunch time run",0,0,2,"2014-08-08T02:32:47Z","2014-08-08T12:32:47Z",-37.82,"[-37.82 144.95]",144.95,NA,"(GMT+10:00) Australia/Melbourne",103,0,0,"Run",NA,0
"167",0,0,"issaquah","United States",0,2,"M","wa",1,NA,NA,3.133,NA,NA,0,0,NA,6272.7,2015,31.7,17.6,"[47.54 -122.05]",0,"",0,0,NA,0,"Issaquah","United States","WA",0,NA,4.3,NA,2002,"Morning Run",0,0,2,"2015-07-09T13:44:09Z","2015-07-09T06:44:09Z",47.54,"[47.54 -122.05]",-122.05,NA,"(GMT-08:00) America/Los_Angeles",13.2,0,0,"Run",NA,0
"168",0,0,"Liguria, Italy","Italy",0,2,"M","Liguria",1,NA,NA,2.543,NA,NA,0,0,NA,8375.3,3473,395.7,145.6,"[44.08 9.92]",0,"g936787",0,0,NA,0,"","Italy","",0,NA,6.2,NA,3294,"Corsa mattutina",0,0,2,"2016-01-31T07:37:54Z","2016-01-31T08:37:54Z",44.05,"[44.05 9.96]",9.96,NA,"(GMT+01:00) Europe/Rome",300.8,0,0,"Run",NA,NA
"169",0,0,"Koenigsmacker","France",0,2,"M","Lorraine",1,NA,144.5,2.904,17,NA,0,0,NA,7579.7,2610,267.2,258.6,"[49.39 6.27]",0,"",1,0,NA,6,"Kœnigsmacker","France","Lorraine",0,166,4.2,NA,2610,"Course à pied matinale",0,0,2,"2015-10-05T07:03:48Z","2015-10-05T09:03:48Z",49.39,"[49.39 6.27]",6.27,NA,"(GMT+01:00) Europe/Paris",21.4,0,0,"Run",NA,NA
"170",9,0,"","",0,2,"M","",1,NA,NA,3.212,NA,NA,0,0,NA,8492.2,3094,314,264.9,"[33.77 -84.37]",0,"",0,0,NA,3,"","","",0,NA,11.1,NA,2644,"Forgot to press the finish button...",0,0,2,"2016-02-17T21:49:46Z","2016-02-17T16:49:46Z",33.77,"[33.77 -84.38]",-84.38,NA,"(GMT-05:00) America/New_York",72.2,0,0,"Run",NA,0
"171",3,0,"Yokohama","Japan",0,2,"M","Kanagawa Prefecture",1,NA,170.2,3.305,NA,NA,0,0,NA,10399.3,3168,27,-19.7,"[35.46 139.64]",0,"g356842",1,0,NA,1,"Japan","Japan","Kanagawa",0,202,9.6,NA,3147,"10/16/2014 Japan, Kanagawa, Japan",0,0,2,"2014-10-16T09:54:46Z","2014-10-16T18:54:46Z",35.46,"[35.46 139.64]",139.64,NA,"(GMT+09:00) Asia/Tokyo",145.4,0,0,"Run",NA,NA
"172",4,1,"Manchester","United Kingdom",1,2,"M","England",1,NA,NA,4.248,NA,NA,0,0,NA,2994.7,714,42.9,36.5,"[53.42 -2.23]",0,"",0,0,NA,0,"Manchester","United Kingdom","England",0,NA,5.4,NA,705,"09/13/2014 Manchester, England, United Kingdom",0,0,2,"2014-09-13T17:51:17Z","2014-09-13T18:51:17Z",53.42,"[53.42 -2.22]",-2.22,NA,"(GMT+00:00) Europe/London",0,0,0,"Run",NA,0
"173",0,0,"Boston","United States",0,2,"M","Massachusetts",1,NA,NA,3.083,NA,NA,0,0,NA,2457.5,797,61.4,42.2,"[42.28 -71.14]",0,"g835282",0,0,NA,0,"Boston","United States","Massachusetts",0,NA,4.5,NA,797,"Afternoon Run",0,0,2,"2015-06-16T21:21:09Z","2015-06-16T17:21:09Z",42.28,"[42.28 -71.14]",-71.14,NA,"(GMT-05:00) America/New_York",23.9,0,0,"Run",NA,0
"174",5,0,"Brisbane","Australia",0,2,"M","QLD",1,NA,NA,1.795,NA,NA,0,0,NA,8598.3,4896,38.6,2.3,"[-27.48 153.03]",0,"",0,0,NA,1,"","Australia","",0,NA,7.8,NA,4789,"Evening Walk - Part 1",0,0,2,"2016-03-02T07:15:40Z","2016-03-02T17:15:40Z",-27.45,"[-27.45 153.04]",153.04,NA,"(GMT+10:00) Australia/Brisbane",118.4,0,0,"Run",NA,0
"175",0,0,"Bathurst","Australia",0,2,"M","NSW",1,90.7,NA,3.853,NA,NA,0,0,NA,1009.6,262,700.8,693.8,"[-33.43 149.57]",0,"g271854",0,0,NA,0,"Mitchell","Australia","New South Wales",0,NA,4.5,NA,262,"19/11/2014 Mitchell, New South Wales, Australia",0,0,2,"2014-11-19T07:03:29Z","2014-11-19T18:03:29Z",-33.42,"[-33.42 149.57]",149.57,NA,"(GMT+10:00) Australia/Sydney",0,0,0,"Run",NA,NA
"176",0,0,"Loose","United Kingdom",0,2,"M","",1,NA,NA,2.657,NA,NA,0,0,NA,3573.9,1394,102.3,56.8,"[51.25 0.54]",0,"",0,0,NA,0,"Loose","United Kingdom","",0,NA,4,NA,1345,"Morning Run",0,0,2,"2014-12-22T08:02:57Z","2014-12-22T08:02:57Z",51.24,"[51.24 0.52]",0.52,NA,"(GMT+00:00) Europe/London",44.6,0,0,"Run",NA,0
"177",0,0,"London","United Kingdom",0,2,"M","",1,NA,NA,3.064,NA,NA,0,0,NA,5549.2,1852,49,29.6,"[51.56 -0.11]",0,"g852157",0,0,NA,0,"London, UK","United Kingdom","England",0,NA,5.8,NA,1811,"Morning Run",0,0,2,"2015-12-16T08:09:28Z","2015-12-16T08:09:28Z",51.56,"[51.56 -0.11]",-0.11,NA,"(GMT+00:00) Europe/London",18.6,0,0,"Run",NA,NA
"178",0,0,"Berlin","Deutschland",0,2,"M","Berlin",1,NA,168.1,3.571,NA,NA,0,0,NA,6241.7,1810,122.2,85.7,"[52.22 21.01]",0,"",1,0,NA,0,"Warszawa","Poland","mazowieckie",0,207,13.7,NA,1748,"02.12.11 Warszawa, mazowieckie, Poland",0,0,2,"2011-12-02T14:18:41Z","2011-12-02T15:18:41Z",52.22,"[52.22 21.01]",21.01,NA,"(GMT+01:00) Europe/Warsaw",34.6,0,0,"Run",NA,0
"179",0,0,"Antwerpen","Belgium",0,2,"M","Vlaams Gewest",1,NA,177.1,3.228,NA,NA,0,0,NA,12364.7,4873,19.7,5,"[51.2 4.44]",0,"g828073",1,0,NA,5,"Antwerpen","Belgium","Vlaams Gewest",0,244,5.9,NA,3830,"10/08/2015 ZS Lopen",0,0,2,"2015-08-10T17:54:32Z","2015-08-10T19:54:32Z",51.2,"[51.2 4.44]",4.44,NA,"(GMT+01:00) Europe/Brussels",32,0,0,"Run",NA,NA
"180",0,0,"Howell","United States",0,2,"M","New Jersey",1,75.8,141.3,2.783,NA,NA,0,0,NA,7071.8,2564,32.4,24.8,"[40.14 -74.23]",0,"",1,0,NA,0,"Howell","United States","New Jersey",0,171,6.1,NA,2541,"07/06/2015 Howell, New Jersey",0,0,2,"2015-07-06T23:34:53Z","2015-07-06T19:34:53Z",40.14,"[40.14 -74.23]",-74.23,NA,"(GMT-05:00) America/New_York",0,0,0,"Run",NA,NA
"181",0,1,"Fareham","United Kingdom",1,2,"M","England",25,85.6,NA,2.878,NA,NA,0,0,NA,23072.1,8018,226,114,"[54.28 -2.46]",0,"g578293",0,0,NA,6,"","United Kingdom","",0,NA,5.9,NA,7977,"Dentdale 14m road race ",0,0,2,"2016-03-12T13:00:41Z","2016-03-12T13:00:41Z",54.28,"[54.28 -2.46]",-2.46,NA,"(GMT+00:00) Europe/London",360.6,1,0,"Run",NA,1
"182",0,0,"Augusta ","United States",0,2,"M","GA",1,NA,NA,3.232,NA,NA,0,0,NA,15512.1,4944,2139.6,2097.3,"[35.15 -111.67]",0,"g289136",0,0,NA,0,"Flagstaff","United States","AZ",0,NA,4,NA,4799,"Recovery",0,0,2,"2014-03-30T14:40:00Z","2014-03-30T07:40:00Z",35.15,"[35.15 -111.67]",-111.67,NA,"(GMT-07:00) America/Phoenix",70.3,0,0,"Run",NA,0
"183",0,0,"Riyadh","Saudi Arabia",0,2,"M","Riyadh Province",1,NA,NA,1.971,NA,NA,0,0,NA,6707.8,3548,596,588.8,"[24.79 46.8]",0,"",0,0,NA,1,"Riyadh","Saudi Arabia","Riyadh Province",0,NA,4.2,NA,3403,"Evening Run after Iftar Meal. Should be 6 laps at least.",0,0,2,"2015-07-07T17:45:32Z","2015-07-07T20:45:32Z",24.79,"[24.79 46.8]",46.8,NA,"(GMT+03:00) Asia/Riyadh",0,0,0,"Run",NA,0
"184",0,0,"Castelnau de médoc","France",0,2,"M","Aquitaine",3,NA,NA,2.383,NA,NA,0,0,NA,7079.7,2971,18.3,1,"[44.95 -0.6]",0,"",0,0,NA,1,"Parempuyre","France","Aquitaine",0,NA,6.9,NA,2971,"Course à pied de l'après-midi",0,0,2,"2015-04-08T13:03:16Z","2015-04-08T15:03:16Z",44.95,"[44.95 -0.6]",-0.6,NA,"(GMT+01:00) Europe/Paris",10.6,0,0,"Run",NA,0
"185",0,0,"Pastriz","Spain",0,2,"M","Aragón",1,NA,NA,2.813,NA,NA,0,0,NA,8104.8,3054,189.6,178.5,"[41.62 -0.78]",0,"g635166",0,0,NA,0,"Pastriz","Spain","Aragon",0,NA,6.3,NA,2881,"Carrera vespertina",0,0,2,"2015-07-18T18:15:39Z","2015-07-18T20:15:39Z",41.62,"[41.62 -0.78]",-0.78,NA,"(GMT+01:00) Europe/Madrid",10.2,0,0,"Run",NA,0
"186",0,1,"Kings Point","United States",1,2,"M","NY",2,79.8,148.6,2.93,NA,NA,0,0,NA,6592.4,2264,17.8,9,"[40.81 -73.76]",0,"",1,0,NA,12,"Kings Point","United States","New York",0,168,3.9,NA,2250,"Trail run",0,0,2,"2015-08-23T11:42:30Z","2015-08-23T07:42:30Z",40.82,"[40.82 -73.76]",-73.76,67,"(GMT-05:00) America/New_York",17,0,0,"Run",NA,0
"187",1,0,"Cardiff","United Kingdom",0,2,"M","Wales",1,83.3,139,2.602,NA,NA,0,0,NA,20114.1,8536,285.5,31.6,"[51.53 -3.23]",0,"",1,0,NA,5,"Cardiff","United Kingdom","Wales",0,152,4.9,NA,7729,"Morning Run",0,0,2,"2016-03-28T09:49:02Z","2016-03-28T10:49:02Z",51.53,"[51.53 -3.23]",-3.23,NA,"(GMT+00:00) Europe/London",481.7,0,0,"Run",NA,NA
"188",0,0,"Lexington","United States",0,2,"M","NC",2,82.7,NA,3.307,NA,NA,0,0,NA,9021.4,2728,245.6,202.8,"[35.82 -80.24]",0,"",0,0,NA,0,"Lexington","United States","North Carolina",0,NA,4.4,NA,2728,"01/08/2015 Lexington, North Carolina",0,0,2,"2015-01-08T16:36:28Z","2015-01-08T11:36:28Z",35.82,"[35.82 -80.24]",-80.24,NA,"(GMT-05:00) America/New_York",96.9,0,0,"Run",NA,NA
"189",0,0,"Muscle Shoals","United States",0,2,"M","AL",1,NA,171.7,3.078,NA,NA,0,0,NA,2927,951,190.6,183.2,"[34.73 -87.64]",0,"g413488",1,0,NA,14,"Muscle Shoals","United States","Alabama",0,184,3.9,NA,951,"15' Brick Run",0,0,2,"2015-05-09T17:57:43Z","2015-05-09T12:57:43Z",34.73,"[34.73 -87.64]",-87.64,NA,"(GMT-06:00) America/Chicago",7,0,0,"Run",NA,0
"190",5,0,"Calgary","Canada",0,2,"M","Alberta",1,NA,NA,2.613,NA,NA,0,0,NA,30317.7,11785,1137.7,1108.1,"[51.01 -114.14]",0,"",0,0,NA,0,"Calgary","Canada","AB",0,NA,4,NA,11602,"12/14/2013 Calgary, AB, Canada",0,0,2,"2013-12-14T12:18:34Z","2013-12-14T05:18:34Z",51.01,"[51.01 -114.14]",-114.14,NA,"(GMT-07:00) America/Edmonton",133,0,0,"Run",NA,NA
"191",0,0,"Salt Lake City","United States",0,2,"M","UT",1,77.8,117.4,1.724,NA,NA,0,0,NA,4402.5,2554,NA,NA,"",0,"",1,0,NA,0,"","United States","",0,166,3.7,NA,2554,"05/13/2014",0,0,2,"2014-05-13T12:09:18Z","2014-05-13T06:09:18Z",NA,"",NA,NA,"(GMT-07:00) America/Denver",0,0,1,"Run",NA,NA
"192",0,0,"Mercer Island","United States",0,2,"M","WA",1,NA,NA,3.755,NA,NA,0,0,NA,9774.7,2929,1504.1,1443.7,"[45.94 -118.02]",0,"g995580",0,0,NA,0,"Walla Walla","United States","Oregon",0,NA,5,NA,2603,"XC @ Johnston: Recovery Run Tiger Canyon w/ TC & Kwaj",0,0,2,"2015-10-09T15:43:54Z","2015-10-09T08:43:54Z",45.94,"[45.94 -118.02]",-118.02,NA,"(GMT-08:00) America/Los_Angeles",261.3,0,0,"Run",NA,NA
"193",0,0,"","United Kingdom",0,2,"M","",1,NA,NA,3.36,NA,NA,0,0,NA,1619.5,589,20.5,12,"[51.38 -0.4]",0,"g456429",0,0,NA,0,"West Molesey","United Kingdom","England",0,NA,8.6,NA,482,"Night Run school shoes after few beers ",0,0,2,"2014-10-17T22:10:48Z","2014-10-17T23:10:48Z",51.37,"[51.37 -0.41]",-0.41,NA,"(GMT+00:00) Europe/London",0,0,0,"Run",NA,0
"194",6,0,"","United States",0,2,"M","",1,85.1,143.9,2.721,NA,NA,0,0,NA,12883.9,4894,932.6,833.8,"[36.2 -115.32]",0,"",1,0,NA,0,"Las Vegas","United States","Nevada",0,162,3.4,NA,4735,"Morning Run",0,0,2,"2015-09-17T13:01:57Z","2015-09-17T06:01:57Z",36.2,"[36.2 -115.32]",-115.32,NA,"(GMT-08:00) America/Los_Angeles",123.7,0,0,"Run",NA,NA
"195",0,0,"Atlanta","United States",0,2,"M","GA",1,79.9,NA,2.985,NA,NA,0,0,NA,7261.5,2480,306.4,265.2,"[33.87 -84.27]",0,"g689062",0,0,NA,0,"Atlanta","United States","Georgia",0,NA,4.5,NA,2433,"Brandywine Rd",0,0,2,"2016-01-13T17:06:06Z","2016-01-13T12:06:06Z",33.87,"[33.87 -84.27]",-84.27,NA,"(GMT-05:00) America/New_York",39,0,0,"Run",NA,NA
"196",0,0,"Kettering","United Kingdom",0,2,"M","",1,91,140.4,3.136,NA,NA,0,0,NA,6193.3,1975,-13.6,-15.6,"",0,"",1,0,NA,3,"","United Kingdom","",0,177,7.3,NA,1975,"30m treadmill. 6x30s @ 10-14mph",0,0,2,"2016-01-21T06:46:41Z","2016-01-21T06:46:41Z",NA,"",NA,NA,"(GMT+00:00) Europe/London",0,0,1,"Run",NA,0
"197",0,0,"Cape Town","South Africa",0,2,"M","Western Cape",1,90.4,NA,3.622,NA,NA,0,1,NA,6511.7,1804,73,7,"[-33.97 18.49]",0,"g856275",0,0,NA,1,"Cape Town","South Africa","Western Cape",0,NA,5.4,NA,1798,"Home",0,0,2,"2015-10-12T15:36:41Z","2015-10-12T17:36:41Z",-33.97,"[-33.97 18.47]",18.47,NA,"(GMT+02:00) Africa/Johannesburg",90,0,0,"Run",NA,NA
"198",6,0,"","",0,2,"M","",1,NA,158.7,2.945,NA,NA,0,0,NA,5250.9,1804,1610.3,1585.1,"[-26.11 28.15]",0,"",1,0,NA,0,"","","",0,172,3.8,NA,1783,"Morning Run",0,0,2,"2016-01-14T04:46:25Z","2016-01-14T06:46:25Z",-26.11,"[-26.11 28.15]",28.15,NA,"(GMT+02:00) Africa/Johannesburg",68.1,0,0,"Run",NA,NA
"199",6,0,"Derby","United Kingdom",0,2,"M","England",2,NA,NA,2.36,NA,NA,0,0,NA,8357.4,4132,89.3,49.6,"[52.93 -1.47]",0,"",0,0,NA,0,"Derby","United Kingdom","England",0,NA,5.7,NA,3542,"01/15/2015 Derby, England, United Kingdom",0,0,2,"2015-01-15T19:07:55Z","2015-01-15T19:07:55Z",52.93,"[52.93 -1.48]",-1.48,NA,"(GMT+00:00) Europe/London",109.4,0,0,"Run",NA,0
"200",0,0,"","United Kingdom",0,2,"M","England",1,NA,NA,3.559,NA,NA,0,0,NA,4804.2,1356,65.1,44,"[54.64 -1.35]",0,"g333861",0,0,NA,0,"Billingham TS22, UK","United Kingdom","England",0,NA,5.5,NA,1350,"04/04/2014 Billingham TS22, UK, England, United Kingdom",0,0,2,"2014-04-04T17:42:44Z","2014-04-04T18:42:44Z",54.64,"[54.64 -1.35]",-1.35,NA,"(GMT+00:00) Europe/London",32,0,0,"Run",NA,0
"201",8,0,"Singapore","Singapore",0,2,"M","",1,NA,NA,2.755,NA,NA,0,0,NA,10855.9,3950,70.8,13,"[1.34 103.84]",0,"",0,0,NA,1,"","Singapore","",0,NA,4.1,NA,3941,"Afternoon Run",0,0,2,"2016-03-20T09:57:30Z","2016-03-20T17:57:30Z",1.34,"[1.34 103.83]",103.83,NA,"(GMT+08:00) Asia/Singapore",132.4,0,0,"Run",NA,0
"202",5,1,"Hook of Holland","Netherlands",1,2,"M","South Holland",1,NA,133.2,2.745,22,NA,0,0,NA,3742,1363,557,456.8,"[46.77 6.65]",0,"g443489",1,0,NA,0,"Yverdon-les-Bains","Switzerland","Vaud",0,162,8.7,NA,1363,"03/09/2014 Yverdon-les-Bains, Vaud, Switzerland",0,0,2,"2014-09-03T18:42:15Z","2014-09-03T20:42:15Z",46.77,"[46.77 6.65]",6.65,26,"(GMT+01:00) Europe/Zurich",99,0,0,"Run",NA,0
"203",1,0,"London","United Kingdom",0,2,"M","",1,NA,NA,3.582,NA,NA,0,0,NA,7077.2,1986,58,13.4,"[51.41 -0.24]",0,"",0,0,NA,0,"London","United Kingdom","England",0,NA,4.6,NA,1976,"Evening Run",0,0,2,"2015-09-25T17:15:46Z","2015-09-25T18:15:46Z",51.41,"[51.41 -0.24]",-0.24,NA,"(GMT+00:00) Europe/London",40.7,0,0,"Run",NA,NA
"204",0,0,"Montgomery","United States",0,2,"M","AL",1,NA,NA,3.063,NA,NA,0,0,NA,6616.9,2160,NA,NA,"",0,"",0,0,NA,0,"","United States","",1,NA,0,NA,2160,"20/02/2014",0,0,2,"2014-02-21T00:04:40Z","2014-02-20T18:04:40Z",NA,"",NA,NA,"(GMT-06:00) America/Chicago",0,0,0,"Run",NA,NA
"205",2,0,"14b Stocks Bridge Way Saint Ives","United Kingdom",0,2,"M","",1,87.7,NA,3.839,NA,NA,0,0,NA,12884.9,3356,22.2,10,"[52.32 -0.16]",0,"g661796",0,0,NA,15,"","United Kingdom","",0,NA,5.1,NA,3356,"Let's start again ",0,0,2,"2016-01-02T10:25:54Z","2016-01-02T10:25:54Z",52.32,"[52.32 -0.16]",-0.16,NA,"(GMT+00:00) Europe/London",0,0,0,"Run",NA,0
"206",0,0,"Lugo de Llanera","Spain",0,2,"M","Principado de Asturias",1,NA,NA,3.049,NA,NA,0,0,NA,10683.4,3621,173.8,151.7,"[43.44 -5.82]",0,"g1166991",0,0,NA,1,"Lugo de Llanera","Spain","Principado de Asturias",0,NA,10.4,NA,3504,",2x1000, 4x 500, 6x 250",0,0,2,"2016-02-01T08:58:17Z","2016-02-01T09:58:17Z",43.44,"[43.44 -5.82]",-5.82,NA,"(GMT+01:00) Europe/Madrid",49.7,0,0,"Run",NA,0
"207",0,1,"","Australia",1,2,"M","",1,95.2,152.7,3.925,18,NA,0,0,NA,12455.3,3173,51.2,-23.4,"[-35.05 150.68]",0,"g699394",1,0,NA,0,"Vincentia","Australia","New South Wales",0,161,5.7,NA,3173,"GPS goes wibble",0,0,2,"2015-03-18T17:55:13Z","2015-03-19T04:55:13Z",-35.07,"[-35.07 150.65]",150.65,82,"(GMT+10:00) Australia/Sydney",58,0,0,"Run",NA,0
"208",5,0,"Pachuca","Mexico",0,2,"M","HGO",1,NA,NA,1.975,NA,NA,0,0,NA,4415.1,2665,2434,2424.6,"[20.09 -98.71]",0,"",0,0,NA,0,"Pachuca","Mexico","HGO",0,NA,5.2,NA,2235,"Morning Run",0,0,2,"2014-07-25T14:16:49Z","2014-07-25T09:16:49Z",20.09,"[20.09 -98.71]",-98.71,NA,"(GMT-06:00) America/Mexico_City",0,0,0,"Run",NA,0
"209",1,0,"Seoul","South Korea",0,2,"M","",2,NA,NA,3.076,NA,NA,0,0,NA,10498.3,3415,36.6,5,"[37.53 127.01]",0,"g1257508",0,0,NA,2,"","South Korea","",0,NA,8.9,NA,3413,"Lunch Run",0,0,2,"2016-01-10T03:30:30Z","2016-01-10T12:30:30Z",37.53,"[37.53 127]",127,NA,"(GMT+09:00) Asia/Seoul",77.7,0,0,"Run",NA,NA
"210",2,0,"Seaforth","Australia",0,2,"M","NSW",1,NA,NA,2.508,NA,NA,0,0,NA,2826.3,1413,28.2,0.4,"[1.29 103.84]",0,"",0,0,NA,0,"Singapore","Singapore","",0,NA,9.2,NA,1127,"Morning run",0,0,2,"2014-11-30T23:19:51Z","2014-12-01T07:19:51Z",1.29,"[1.29 103.84]",103.84,NA,"(GMT+08:00) Asia/Singapore",51.1,0,0,"Run",NA,0
"211",0,1,"Ann Arbor","United States",1,2,"M","Michigan",1,NA,NA,3.12,NA,NA,0,0,NA,3201,1030,254.5,249.9,"[42.19 -83.75]",0,"",0,0,NA,4,"Ann Arbor","United States","MI",0,NA,4.6,NA,1026,"Afternoon Run",0,0,2,"2015-02-16T22:45:24Z","2015-02-16T17:45:24Z",42.19,"[42.19 -83.75]",-83.75,NA,"(GMT-05:00) America/Detroit",0,0,0,"Run",NA,0
"212",1,0,"Farnborough","United Kingdom",0,2,"M","Hampshire",1,NA,NA,3.928,NA,NA,0,0,NA,5389.7,1372,75.9,65.2,"[51.3 -0.79]",0,"",0,0,NA,2,"Farnborough","United Kingdom","Hampshire",0,NA,6.7,NA,1372,"Shoulder still injured",0,0,2,"2014-10-23T15:06:44Z","2014-10-23T16:06:44Z",51.3,"[51.3 -0.79]",-0.79,NA,"(GMT+00:00) Europe/London",10.3,0,0,"Run",NA,0
"213",3,0,"Lorient","France",0,2,"M","FRANCE",1,NA,NA,3.676,NA,NA,0,0,NA,6234.1,2111,41,4.3,"[47.74 -3.4]",0,"g345666",0,0,NA,5,"Lorient","France","Brittany",0,NA,9.6,NA,1696,"Ballade avec Louna",0,0,2,"2015-12-27T13:58:24Z","2015-12-27T14:58:24Z",47.74,"[47.74 -3.4]",-3.4,NA,"(GMT+01:00) Europe/Paris",76,0,0,"Run",NA,0
"214",0,1,"Mariefred","Sverige",1,2,"M","Södermanland County",1,NA,NA,2.372,NA,NA,0,0,NA,6930,2921,NA,NA,"",0,"g920000",0,0,NA,0,"","Sverige","",1,NA,0,NA,2921,"GrundtrÃ€n",0,0,2,"2013-05-09T06:11:34Z","2013-05-09T08:11:34Z",NA,"",NA,NA,"(GMT+01:00) Europe/Stockholm",0,0,0,"Run",NA,NA
"215",13,0,"Barcelona","España",0,2,"M","Cataluña",1,84.4,NA,3.525,NA,NA,0,0,NA,21156.5,6025,66.4,0,"[41.38 2.19]",0,"",0,0,NA,0,"Barcelona","Spain","Catalunya",0,NA,4.9,NA,6002,"01/11/2015 Barcelona, Catalunya, Spain",0,0,2,"2015-01-11T09:10:01Z","2015-01-11T10:10:01Z",41.4,"[41.4 2.16]",2.16,NA,"(GMT+01:00) Europe/Madrid",37,0,0,"Run",NA,NA
"216",3,0,"Melbourne ","Australia",0,2,"M","Victoria",1,NA,NA,3.482,NA,NA,0,0,NA,4240.9,1301,22.7,7,"[-38.15 145.12]",0,"",0,0,NA,0,"Frankston South","Australia","Victoria",0,NA,5.2,NA,1218,"Afternoon Run",0,0,2,"2015-09-04T04:28:17Z","2015-09-04T14:28:17Z",-38.15,"[-38.15 145.12]",145.12,NA,"(GMT+10:00) Australia/Melbourne",14.8,0,0,"Run",NA,0
"217",0,1,"Durban","South Africa",1,2,"M","KZN",2,NA,139.5,3.064,NA,NA,0,0,NA,8671.9,3672,256.8,250.3,"[-29.85 30.91]",0,"",1,0,NA,0,"Westville","South Africa","KwaZulu-Natal",0,163,5,NA,2830,"Track 15 x 1 lappers",0,0,2,"2015-02-26T15:06:51Z","2015-02-26T17:06:51Z",-29.85,"[-29.85 30.91]",30.91,52,"(GMT+02:00) Africa/Johannesburg",0,0,0,"Run",NA,0
"218",3,0,"Quebec","Canada",0,2,"M","QC",1,NA,NA,6.3,NA,NA,0,0,NA,24217.2,4725,177.4,152.4,"[46.86 -71.4]",1,"",0,0,NA,0,"Quebec","Canada","QC",0,NA,15.5,NA,3844,"Val Belair. Emilie",0,0,2,"2014-07-25T15:29:53Z","2014-07-25T11:29:53Z",46.86,"[46.86 -71.4]",-71.4,NA,"(GMT-05:00) America/Montreal",31.8,0,0,"Run",NA,0
"219",0,1,"Toronto","Canada",1,2,"M","ON",1,175.9,139.7,3.126,NA,NA,0,0,NA,7327.4,3185,115.1,105,"[43.68 -79.32]",0,"",1,0,NA,0,"Toronto","Canada","ON",0,164,5.9,NA,2344,"Lunch Run",0,0,2,"2015-10-27T15:51:46Z","2015-10-27T11:51:46Z",43.68,"[43.68 -79.32]",-79.32,74,"(GMT-05:00) America/Toronto",0,0,0,"Run",NA,0
"220",0,1,"Fort Edward","United States",1,2,"M","New York",1,57.2,NA,1.756,NA,NA,0,0,NA,2444,2558,79.3,76,"[43.29 -73.59]",0,"g492772",0,0,NA,0,"Hudson Falls","United States","NY",0,NA,1.9,NA,1392,"Night Run",0,0,2,"2015-12-17T04:29:37Z","2015-12-16T23:29:37Z",43.29,"[43.29 -73.59]",-73.59,NA,"(GMT-05:00) America/New_York",0,0,0,"Run",NA,0
"221",0,1,"Ladenburg","Germany",1,2,"M","Baden-Württemberg",1,83.1,150.6,2.549,17,NA,0,0,NA,6193.9,2430,103,95.2,"[49.47 8.6]",0,"g729968",1,0,NA,0,"Ladenburg","Germany","Baden-Württemberg",0,184,4.7,NA,2430,"Nachmittagslauf",0,0,2,"2015-11-26T15:29:25Z","2015-11-26T16:29:25Z",49.47,"[49.47 8.6]",8.6,63,"(GMT+01:00) Europe/Berlin",7,0,0,"Run",NA,0
"222",0,0,"Tredegar","United Kingdom",0,2,"M","Wales",1,NA,NA,3.216,NA,NA,4,0,NA,5735,2231,25.5,5,"[53.41 -2.99]",0,"",0,0,NA,21,"","United Kingdom","",0,NA,11.9,NA,1783,"Liverpool ",0,0,2,"2016-02-26T09:16:06Z","2016-02-26T09:16:06Z",53.41,"[53.41 -2.99]",-2.99,NA,"(GMT+00:00) Europe/London",32.1,0,0,"Run",NA,0
"223",3,0,"Buenos Aires","Argentina",0,2,"M","Buenos Aires",1,81.8,NA,3.108,NA,NA,0,0,NA,18245.2,6244,41.1,3.9,"[-34.57 -58.46]",0,"g727106",0,0,NA,0,"","Argentina","",0,NA,14.3,NA,5870,"Carrera matutina",0,0,2,"2015-12-06T11:35:59Z","2015-12-06T08:35:59Z",-34.57,"[-34.57 -58.46]",-58.46,NA,"(GMT-03:00) America/Argentina/Buenos_Aires",81.4,0,0,"Run",NA,NA
"224",0,0,"Belmont","United States",0,2,"M","CA",1,NA,NA,3.558,NA,NA,0,0,NA,32192.6,9049,NA,NA,"",0,"",0,0,NA,0,"","United States","",1,NA,0,NA,9049,"Garmin 305",0,0,2,"2012-11-03T21:08:09Z","2012-11-03T14:08:09Z",NA,"",NA,NA,"(GMT-08:00) America/Los_Angeles",0,0,0,"Run",NA,NA
"225",0,0,"Paris","France",0,2,"M","Île-de-France",2,NA,NA,3.304,NA,NA,0,0,NA,11339,3593,60.8,49.8,"[48.88 2.37]",0,"g837432",0,0,NA,0,"Paris","France","Île-de-France",0,NA,4.9,NA,3432,"Course en après-midi",0,0,2,"2015-07-31T15:20:31Z","2015-07-31T17:20:31Z",48.88,"[48.88 2.37]",2.37,NA,"(GMT+01:00) Europe/Paris",10.3,0,0,"Run",NA,0
"226",0,0,"Morgan Hill","United States",0,2,"M","CA",1,NA,NA,3.155,NA,NA,0,0,NA,3173.6,1006,115.3,111.2,"[37.14 -121.65]",0,"",0,0,NA,0,"Morgan Hill","United States","CA",0,NA,4.5,NA,1006,"Lunch Run",0,0,2,"2016-01-21T19:59:47Z","2016-01-21T11:59:47Z",37.14,"[37.14 -121.65]",-121.65,NA,"(GMT-08:00) America/Los_Angeles",0,0,0,"Run",NA,0
"227",0,1,"Perth","Australia",1,2,"M","Western Australia",1,NA,NA,3.022,NA,NA,0,0,NA,8165.3,2702,24.5,0.1,"[-31.91 115.81]",0,"",0,0,NA,0,"Osborne Park","Australia","Western Australia",0,NA,4.1,NA,2702,"Afternoon Run",0,0,2,"2016-01-06T08:18:15Z","2016-01-06T16:18:15Z",-31.91,"[-31.91 115.81]",115.81,NA,"(GMT+08:00) Australia/Perth",32.1,0,0,"Run",NA,0
"228",0,0,"Interlaken","Schweiz",0,2,"M","Bern",1,NA,NA,2.855,22,NA,0,0,NA,9996,3523,615.5,563.3,"[46.69 7.88]",0,"",0,0,NA,0,"Interlaken","Switzerland","Bern",0,NA,3.6,NA,3501,"Morgenlauf",0,0,2,"2015-06-30T05:28:48Z","2015-06-30T07:28:48Z",46.69,"[46.69 7.88]",7.88,NA,"(GMT+01:00) Europe/Zurich",110,0,0,"Run",NA,0
"229",0,0,"Waltham","United States",0,2,"M","MA",1,NA,NA,3.518,NA,NA,0,0,NA,5111,1456,78.5,49.3,"[42.4 -71.24]",0,"",0,0,NA,1,"Waltham","United States","MA",0,NA,4.2,NA,1453,"afternoon 5k",0,0,2,"2015-04-13T21:42:16Z","2015-04-13T17:42:16Z",42.4,"[42.4 -71.24]",-71.24,NA,"(GMT-05:00) America/New_York",44.9,0,0,"Run",NA,0
"230",0,0,"","",0,2,"M","",1,NA,NA,2.698,NA,NA,0,0,NA,5649.9,2101,2230.1,2120,"[35.24 -111.58]",0,"g1126977",0,0,NA,0,"","","",0,NA,5.1,NA,2094,"Evening Trail Run",0,0,2,"2015-09-02T01:07:54Z","2015-09-01T18:07:54Z",35.24,"[35.24 -111.58]",-111.58,NA,"(GMT-07:00) America/Phoenix",118.5,0,0,"Run",NA,NA
"231",0,0,"Japan","Japan",0,2,"M","Saitama Prefecture",1,92.1,NA,3.187,NA,NA,0,0,NA,10343.4,3245,18.5,11,"[35.98 139.57]",0,"g856000",0,0,NA,0,"Ageo-shi","Japan","Saitama-ken",0,NA,4.5,NA,3245,"08/15/2015 Ageo-shi, Saitama-ken, Japan",0,0,2,"2015-08-14T22:51:16Z","2015-08-15T07:51:16Z",35.98,"[35.98 139.57]",139.57,NA,"(GMT+09:00) Asia/Tokyo",0,0,0,"Run",NA,NA
"232",0,0,"Geneva","Switzerland",0,2,"M","GE",1,83.9,159.9,2.501,20,NA,0,0,NA,3101.3,1258,467.2,430.8,"[46.22 6.14]",0,"",1,0,NA,0,"Genève","Switzerland","Genève",0,182,7.4,NA,1240,"Afternoon Run",0,0,2,"2016-01-12T12:11:35Z","2016-01-12T13:11:35Z",46.2,"[46.2 6.14]",6.14,NA,"(GMT+01:00) Europe/Zurich",39,0,0,"Run",NA,NA
"233",4,1,"Houston","United States",1,2,"M","TX",1,76.4,NA,2.501,NA,NA,0,0,NA,8054.8,3623,13.5,-0.2,"[29.76 -95.39]",0,"",0,0,NA,0,"Houston","United States","Texas",0,NA,4.1,NA,3221,"Bayou Run with Emily",0,0,2,"2015-05-07T13:58:42Z","2015-05-07T08:58:42Z",29.76,"[29.76 -95.4]",-95.4,NA,"(GMT-06:00) America/Chicago",0,0,0,"Run",NA,NA
"234",0,0,"London","United Kingdom",0,2,"M","England",1,NA,162.1,3.171,NA,NA,0,0,NA,14536.9,4624,58,11.1,"[51.41 -0.22]",0,"",1,0,NA,0,"London","United Kingdom","",0,181,5.2,NA,4584,"11/15/2009 London, United Kingdom",0,0,2,"2009-11-15T10:28:50Z","2009-11-15T10:28:50Z",51.41,"[51.41 -0.22]",-0.22,NA,"(GMT+00:00) Europe/London",122.1,0,0,"Run",NA,0
"235",0,1,"Salem","United States",1,2,"M","OR",1,NA,NA,3.046,NA,NA,0,0,NA,4782.7,1570,NA,NA,"",0,"",0,0,NA,0,"","United States","",0,NA,4,NA,1570,"RUN ON: 03/20/09 06:21 PM",0,0,2,"2009-03-21T01:21:31Z","2009-03-20T18:21:31Z",NA,"",NA,NA,"(GMT-08:00) America/Los_Angeles",0,0,1,"Run",NA,NA
"236",0,0,"Barcelona","Spain",0,2,"M","CT",1,NA,NA,2.588,NA,NA,0,0,NA,5213,2036,29.9,-2.8,"[37.6 -0.98]",0,"",0,0,NA,0,"Cartagena","Spain","Region of Murcia",0,NA,12,NA,2014,"Morning Run",0,0,2,"2014-12-27T09:00:12Z","2014-12-27T10:00:12Z",37.6,"[37.6 -0.98]",-0.98,NA,"(GMT+01:00) Europe/Madrid",30,0,0,"Run",NA,NA
"237",0,1,"Hamburg","Deutschland",1,2,"M","HH",1,NA,164.4,3.413,NA,NA,0,0,NA,15428.3,5024,13.8,0.2,"[53.56 10.03]",0,"g917499",1,0,NA,14,"Hamburg","Germany","HH",0,179,5.1,NA,4520,"Alster-Doppelrunde",0,0,2,"2015-09-18T12:13:40Z","2015-09-18T14:13:40Z",53.56,"[53.56 10.02]",10.02,214,"(GMT+01:00) Europe/Berlin",23.5,0,0,"Run",NA,0
"238",3,1,"Cebu City","Philippines",1,2,"M","Central Visayas",1,NA,NA,2.601,NA,NA,0,0,NA,6318.4,2439,9.3,6.1,"[10.3 123.9]",0,"",0,0,NA,0,"Cebu City","Philippines","Central Visayas",0,NA,4.5,NA,2429,"Evening Run",0,0,2,"2015-03-04T11:58:21Z","2015-03-04T19:58:21Z",10.3,"[10.3 123.9]",123.9,NA,"(GMT+08:00) Asia/Manila",0,0,0,"Run",NA,0
"239",1,0,"Collado Villalba","Spain",0,2,"M","Comunidad de Madrid",1,NA,NA,2.453,NA,NA,0,0,NA,6249,3141,947,914.2,"[40.65 -3.99]",0,"",0,0,NA,0,"Collado Villalba","Spain","Comunidad de Madrid",0,NA,3.3,NA,2548,"Evening Run",0,0,2,"2012-04-22T18:42:56Z","2012-04-22T20:42:56Z",40.65,"[40.65 -3.99]",-3.99,NA,"(GMT+01:00) Europe/Madrid",32.3,0,0,"Run",NA,0
"240",0,0,"Oklahoma City ","United States",0,2,"M","Oklahoma ",1,94.6,NA,3.294,NA,NA,0,0,NA,9737.6,3234,375.4,345.2,"[35.53 -97.53]",0,"g1237779",0,0,NA,14,"Oklahoma City","United States","Oklahoma",0,NA,4.3,NA,2956,"6 Miles Easy ",0,0,2,"2016-03-24T22:26:59Z","2016-03-24T17:26:59Z",35.53,"[35.53 -97.53]",-97.53,NA,"(GMT-06:00) America/Chicago",49,0,0,"Run",NA,0
"241",0,0,"Don Benito","España",0,2,"M","Extremadura",1,NA,NA,1.627,NA,NA,0,0,NA,4423.3,10652,287.2,271.4,"[38.95 -5.87]",0,"",0,0,NA,0,"Don Benito","Spain","Extremadura",0,NA,6.6,NA,2719,"03/26/2011 Don Benito, Extremadura, Spain",0,0,2,"2011-03-26T11:24:05Z","2011-03-26T12:24:05Z",38.95,"[38.95 -5.87]",-5.87,NA,"(GMT+01:00) Europe/Madrid",10.6,0,0,"Run",NA,0
"242",7,0,"Cancún","Mexico",0,2,"M","Q.R.",1,NA,NA,3.143,NA,NA,0,0,NA,22397.6,7227,10,0,"[21.15 -86.82]",0,"",0,0,NA,3,"Cancún","Mexico","Quintana Roo",0,NA,11,NA,7127,"Medio maratón con mi mama ",0,0,2,"2014-12-06T21:55:31Z","2014-12-06T15:55:31Z",21.15,"[21.15 -86.82]",-86.82,NA,"(GMT-05:00) America/Cancun",10,0,0,"Run",NA,0
"243",0,0,"Pool In Wharfedale","United Kingdom",0,2,"M","England",1,NA,147.1,3.077,NA,NA,0,0,NA,10163.5,3404,175.4,47.3,"[53.9 -1.63]",0,"",1,0,NA,0,"Pool","United Kingdom","Leeds",0,157,6.4,NA,3303,"Loop around Otley",0,0,2,"2014-11-01T08:26:36Z","2014-11-01T08:26:36Z",53.9,"[53.9 -1.63]",-1.63,NA,"(GMT+00:00) Europe/London",128.9,0,0,"Run",NA,0
"244",10,1,"Puteaux ","France",1,2,"M","Île-de-France",1,89,NA,3.225,NA,NA,0,0,NA,15005.2,5749,46.9,16.7,"[48.88 2.24]",0,"",0,0,NA,7,"Puteaux","France","Île-de-France",0,NA,5.1,NA,4653,"Afternoon Run",0,0,2,"2015-11-11T16:36:24Z","2015-11-11T17:36:24Z",48.88,"[48.88 2.24]",2.24,NA,"(GMT+01:00) Europe/Paris",141.8,0,0,"Run",NA,NA
"245",4,1,"Aberdyfi","United Kingdom",1,2,"M","Gwynedd",1,NA,NA,3.211,NA,NA,0,0,NA,4688.3,1883,128.2,19.4,"[52.59 -3.86]",0,"g56632",0,0,NA,1,"Machynlleth","United Kingdom","Wales",0,NA,4.5,NA,1460,"29/04/2014 Machynlleth, Wales, United Kingdom",0,0,2,"2014-04-29T16:58:28Z","2014-04-29T17:58:28Z",52.59,"[52.59 -3.86]",-3.86,NA,"(GMT+00:00) Europe/London",122,0,0,"Run",NA,0
"246",2,0,"Torquay","Australia",0,2,"M","VIC",1,NA,NA,3.02,NA,NA,0,0,NA,5157.5,1761,28.8,1.8,"[-38.32 144.33]",0,"",0,0,NA,0,"Torquay","Australia","VIC",0,NA,5.2,NA,1708,"Evening Run",0,0,2,"2014-01-20T07:42:17Z","2014-01-20T18:42:17Z",-38.32,"[-38.32 144.33]",144.33,NA,"(GMT+10:00) Australia/Melbourne",29.6,0,0,"Run",NA,NA
"247",6,0,"Windsor","Canada",0,2,"M","ON",1,NA,NA,2.894,NA,NA,0,0,NA,5099.9,2194,85.9,74.8,"[43.4 -79.7]",0,"",0,0,NA,0,"Oakville","Canada","Ontario",0,NA,5.3,NA,1762,"12/28/2014 Oakville, Ontario, Canada",0,0,2,"2014-12-28T14:38:25Z","2014-12-28T09:38:25Z",43.4,"[43.4 -79.7]",-79.7,NA,"(GMT-05:00) America/Toronto",0,0,0,"Run",NA,NA
"248",0,0,"Brecon","United Kingdom",0,2,"M","Wales",1,NA,134.4,2.552,20,NA,0,0,NA,7396,2964,224.2,121.4,"[51.9 -3.28]",0,"",1,0,NA,0,"Talybont On Usk","United Kingdom","Wales",0,169,3.7,NA,2898,"01/21/2015 Talybont On Usk, Wales, United Kingdom",0,0,2,"2015-01-21T06:58:24Z","2015-01-21T06:58:24Z",51.9,"[51.9 -3.28]",-3.28,NA,"(GMT+00:00) Europe/London",116,0,0,"Run",NA,0
"249",0,0,"San Jose","United States",0,2,"M","CA",1,NA,NA,3.038,NA,NA,0,0,NA,16195,5427,25.1,1.9,"[36.96 -122.08]",0,"",0,0,NA,0,"Santa Cruz","United States","California",0,NA,6.8,NA,5330,"Morning Run",0,0,2,"2016-01-01T16:40:09Z","2016-01-01T08:40:09Z",36.96,"[36.96 -122.08]",-122.08,NA,"(GMT-08:00) America/Los_Angeles",81.3,0,0,"Run",NA,0
"250",0,0,"Franklin","United States",0,2,"M","Tennessee",1,NA,NA,2.97,NA,NA,0,0,NA,4989,1680,NA,NA,"",0,"",0,0,NA,0,"","United States","",1,NA,0,NA,1680,"13/05/2012",0,0,2,"2012-05-13T13:30:00Z","2012-05-13T08:30:00Z",NA,"",NA,NA,"(GMT-06:00) America/Chicago",0,0,0,"Run",NA,NA
"251",0,0,"Peachtree Corners","United States",0,2,"M","GA",1,NA,NA,2.792,NA,NA,0,0,NA,5589.8,2062,335.4,290.8,"[33.97 -84.21]",0,"",0,0,NA,0,"Norcross","United States","Georgia",0,NA,4,NA,2002,"02/07/2015 Norcross, Georgia",0,0,2,"2015-02-07T13:45:36Z","2015-02-07T08:45:36Z",33.97,"[33.97 -84.21]",-84.21,NA,"(GMT-05:00) America/New_York",58.6,0,0,"Run",NA,NA
"252",3,1,"Palm Springs North","United States",1,2,"M","FL",1,NA,160.7,3.04,NA,NA,0,0,NA,6490.4,2195,2.5,1.4,"[25.91 -80.33]",0,"g1036414",1,0,NA,7,"Hialeah","United States","Florida",0,196,5.4,NA,2135,"Morning Run",0,0,2,"2016-02-17T10:45:59Z","2016-02-17T05:45:59Z",25.91,"[25.91 -80.33]",-80.33,87,"(GMT-05:00) America/New_York",0,0,0,"Run",NA,0
"253",1,1,"Lauderdale","United States",1,2,"M","TAS",1,80.9,153.4,3.255,NA,NA,0,0,NA,8658,2675,55,2,"[-42.92 147.51]",0,"g1137282",1,0,NA,0,"Lauderdale","Australia","TAS",0,174,5.2,NA,2660,"Morning Run",0,0,2,"2016-03-26T22:51:26Z","2016-03-27T09:51:26Z",-42.92,"[-42.92 147.51]",147.51,157,"(GMT+10:00) Australia/Hobart",82,0,0,"Run",NA,NA
"254",0,1,"Shanghai","China",1,2,"M","Shanghai",2,71.2,NA,2.263,NA,NA,0,0,NA,7252.9,3850,16.8,3.7,"[31.24 121.59]",0,"",0,0,NA,0,"Shanghai","China","Shanghai Shi",0,NA,12.5,NA,3205,"10/12/2014 Shanghai, Shanghai Shi, China",0,0,2,"2014-12-10T11:45:43Z","2014-12-10T19:45:43Z",31.25,"[31.25 121.56]",121.56,NA,"(GMT+08:00) Asia/Shanghai",10.2,0,0,"Run",NA,NA
"255",0,0,"Chattanooga","United States",0,2,"M","Tennessee",1,NA,NA,3.004,NA,NA,0,0,NA,3244.4,1103,320.1,305.7,"[35.62 -85.87]",0,"g441277",0,0,NA,0,"Mc Minnville","United States","TN",0,NA,3.7,NA,1080,"08/25/2014 Mc Minnville, TN",0,0,2,"2014-08-25T19:13:58Z","2014-08-25T14:13:58Z",35.62,"[35.62 -85.87]",-85.87,NA,"(GMT-06:00) America/Chicago",21.2,0,0,"Run",NA,NA
"256",0,0,"Oulu","Suomi",0,2,"M","Northern Ostrobothnia",1,NA,130.3,3.02,NA,NA,0,0,NA,4026.2,1333,19.5,7.5,"[65.06 25.47]",0,"",1,0,NA,0,"Oulu, Finland","Finland","Northern Ostrobothnia",0,143,3.8,NA,1333,"Morning Run",0,0,2,"2015-02-04T07:21:08Z","2015-02-04T09:21:08Z",65.08,"[65.08 25.52]",25.52,NA,"(GMT+02:00) Europe/Helsinki",12,0,0,"Run",NA,0
"257",3,0,"Birkenhead","United Kingdom",0,2,"M","",1,NA,NA,3.026,NA,NA,0,0,NA,10019,3336,42,8.5,"[53.31 -2.97]",0,"g1258320",0,0,NA,1,"","United Kingdom","",0,NA,4.7,NA,3311,"Afternoon Run",0,0,2,"2016-03-09T16:13:26Z","2016-03-09T16:13:26Z",53.31,"[53.31 -2.97]",-2.97,NA,"(GMT+00:00) Europe/London",43,0,0,"Run",NA,2
"258",4,0,"Huntsville","United States",0,2,"M","TX",1,NA,NA,3.425,NA,NA,0,0,NA,9954.4,2906,18.5,10.5,"[29.78 -95.43]",0,"",NA,0,NA,0,"Houston","United States","TX",0,NA,4.6,NA,2906,"Morning Run",0,0,2,"2014-08-04T12:26:05Z","2014-08-04T07:26:05Z",29.78,"[29.78 -95.43]",-95.43,NA,"(GMT-06:00) America/Chicago",0,0,0,"Run",NA,0
"259",1,0,"Somerville","United States",0,2,"M","MA",1,NA,NA,3.088,NA,NA,0,0,NA,6896.3,2256,57.2,20.6,"[42.35 -71.14]",0,"",0,0,NA,0,"Boston","United States","Massachusetts",0,NA,7.6,NA,2233,"09/02/2014 Boston, Massachusetts",0,0,2,"2014-09-02T23:34:06Z","2014-09-02T19:34:06Z",42.35,"[42.35 -71.14]",-71.14,NA,"(GMT-05:00) America/New_York",56.6,0,0,"Run",NA,0
"260",0,0,"São Paulo","Brazil",0,2,"M","São Paulo",1,NA,NA,2.73,NA,NA,2,0,NA,11162.1,4272,784.6,729.6,"[-23.67 -46.68]",0,"",0,0,NA,0,"São Paulo","Brazil","São Paulo",0,NA,6.2,NA,4088,"Corrida ao entardecer",0,0,2,"2015-02-03T22:19:51Z","2015-02-03T20:19:51Z",-23.67,"[-23.67 -46.68]",-46.68,NA,"(GMT-03:00) America/Sao_Paulo",59.5,0,0,"Run",NA,0
"261",4,0,"Brighton ","United Kingdom",0,2,"M","England",1,NA,NA,2.819,NA,NA,0,0,NA,5167.7,1833,83,75,"[55.94 -3.2]",0,"",0,0,NA,1,"","United Kingdom","",0,NA,4.2,NA,1833,"Morning Run",0,0,2,"2016-03-11T06:36:51Z","2016-03-11T06:36:51Z",55.94,"[55.94 -3.2]",-3.2,NA,"(GMT+00:00) Europe/London",0,1,0,"Run",NA,0
"262",1,0,"Honomu","United States",0,2,"M","HI",1,NA,146,2.853,NA,NA,0,0,NA,4736.1,1663,404.8,349,"[19.85 -155.15]",0,"",1,0,NA,0,"Pepeekeo","United States","Hawaii",0,167,4.2,NA,1660,"04/15/2015 Pepeekeo, Hawaii",0,0,2,"2015-04-16T03:54:28Z","2015-04-15T17:54:28Z",19.85,"[19.85 -155.15]",-155.15,NA,"(GMT-10:00) Pacific/Honolulu",83.1,0,0,"Run",NA,NA
"263",1,0,"Rio De Janeiro","Brazil",0,2,"M","Rio de Janeiro",1,NA,127,2.711,NA,NA,0,0,NA,1361.1,502,16.5,0,"[-22.99 -43.21]",0,"",1,0,NA,0,"Rio de Janeiro","Brazil","Rio de Janeiro",0,144,2.9,NA,502,"06/23/2015 Rio de Janeiro, Rio de Janeiro, Brazil",0,0,2,"2015-06-23T22:11:37Z","2015-06-23T19:11:37Z",-22.99,"[-22.99 -43.23]",-43.23,NA,"(GMT-03:00) America/Sao_Paulo",0,0,0,"Run",NA,0
"264",0,0,"London ","United Kingdom",0,2,"M","England",1,83.3,NA,2.955,NA,NA,0,0,NA,10716,3958,82.9,24.4,"[51.59 -0.11]",0,"",0,0,NA,0,"London","United Kingdom","",0,NA,4,NA,3627,"08/10/2014 London, United Kingdom",0,0,2,"2014-08-10T08:17:35Z","2014-08-10T09:17:35Z",51.58,"[51.58 -0.14]",-0.14,NA,"(GMT+00:00) Europe/London",24.5,0,0,"Run",NA,NA
"265",5,0,"Godalming","United Kingdom",0,2,"M","England",1,85.1,NA,3.209,NA,NA,0,0,NA,13592.4,5317,91.4,33.8,"[51.18 -0.61]",0,"",0,0,NA,0,"Godalming","United Kingdom","England",0,NA,5.1,NA,4236,"Evening Run",0,0,2,"2015-10-28T18:54:37Z","2015-10-28T18:54:37Z",51.18,"[51.18 -0.61]",-0.61,NA,"(GMT+00:00) Europe/London",162,0,0,"Run",NA,NA
"266",0,0,"Kikuyu","Kenya",0,2,"M","Kiambu",1,NA,NA,3.289,NA,NA,0,0,NA,7329,2379,2023.2,1983.9,"[-1.28 36.66]",0,"g994299",0,0,NA,3,"Kiambu, Kenya","Kenya","Kiambu",0,NA,5.4,NA,2228,"Monday Morning Run",0,0,2,"2016-01-18T05:48:23Z","2016-01-18T08:48:23Z",-1.28,"[-1.28 36.66]",36.66,NA,"(GMT+03:00) Africa/Nairobi",85.8,0,0,"Run",NA,NA
"267",3,1,"Chorvátsky Grob","Slovakia",1,2,"M","Bratislava Region",1,81.8,154.6,2.481,23,NA,2,0,NA,12026.9,5069,131,125.2,"[48.23 17.26]",0,"g455359",1,0,NA,3,"Chorvátsky Grob","Slovakia","Bratislava Region",0,173,4.3,NA,4847,"Endurance Run",0,0,2,"2015-10-31T11:18:45Z","2015-10-31T12:18:45Z",48.23,"[48.23 17.25]",17.25,188,"(GMT+01:00) Europe/Bratislava",6,0,0,"Run",NA,0
"268",1,0,"Figueres","Spain",0,2,"M","CT",1,82.9,161.6,3.569,NA,NA,0,0,NA,12531.6,3511,-158,-228,"[42.27 2.96]",0,"",1,0,NA,6,"Figueres","Spain","CT",0,170,5.2,NA,3511,"05/25/2015 Figueres, CT, Spain",0,0,2,"2015-05-25T18:00:06Z","2015-05-25T20:00:06Z",42.27,"[42.27 2.96]",2.96,NA,"(GMT+01:00) Europe/Madrid",140.8,0,0,"Run",NA,0
"269",9,1,"Saginaw","United States",1,2,"M","MI",1,76.6,NA,3.615,NA,NA,0,0,NA,36337.2,10178,250.4,192.2,"[42.95 -85.48]",0,"",0,0,NA,0,"Lowell","United States","MI",0,NA,11.7,NA,10051,"06/08/2014 Lowell, MI",0,0,2,"2014-06-08T13:57:55Z","2014-06-08T09:57:55Z",42.93,"[42.93 -85.32]",-85.32,NA,"(GMT-05:00) America/Detroit",532.6,0,0,"Run",NA,NA
"270",0,0,"Tanque Novo","Brazil",0,2,"M","Bahia",1,NA,NA,1.412,NA,NA,0,0,NA,9679.5,6860,858.5,813.4,"[-13.54 -42.48]",0,"",0,0,NA,2,"Tanque Novo","Brazil","Bahia",0,NA,2.3,NA,6855,"Corrida vespertina",0,0,2,"2014-12-21T20:13:40Z","2014-12-21T17:13:40Z",-13.54,"[-13.54 -42.48]",-42.48,NA,"(GMT-03:00) America/Bahia",35.1,0,0,"Run",NA,0
"271",3,0,"Rutland, UK","United Kingdom",0,2,"M","England",1,NA,NA,2.975,NA,NA,2,0,NA,14558.9,4920,146.2,116.8,"[52.67 -0.72]",0,"g1075766",0,0,NA,5,"Oakham","United Kingdom","England",0,NA,15.6,NA,4894,"Oakham-Langham-Ashwell-Bypass-Barleythorpe-Oakham",0,0,2,"2016-01-06T10:34:49Z","2016-01-06T10:34:49Z",52.67,"[52.67 -0.74]",-0.74,NA,"(GMT+00:00) Europe/London",59,0,0,"Run",NA,NA
"272",0,0,"Preston","United Kingdom",0,2,"M","England",1,NA,NA,3.089,NA,NA,0,0,NA,4408.3,1427,56.2,36.3,"[53.79 -2.67]",0,"",0,0,NA,0,"Fulwood","United Kingdom","England",0,NA,4.9,NA,1427,"06/18/2014 Fulwood, England, United Kingdom",0,0,2,"2014-06-18T06:17:31Z","2014-06-18T07:17:31Z",53.79,"[53.79 -2.67]",-2.67,NA,"(GMT+00:00) Europe/London",33.4,0,0,"Run",NA,0
"273",0,0,"Uden","Netherlands",0,2,"M","Noord-Brabant",1,NA,NA,3.228,NA,NA,0,0,NA,11070,3469,22.9,10.1,"[51.66 5.62]",0,"",0,0,NA,0,"Uden","Netherlands","Noord-Brabant",0,NA,5.3,NA,3429,"Avondhardloopsessie",0,0,2,"2016-01-06T19:52:45Z","2016-01-06T20:52:45Z",51.66,"[51.66 5.62]",5.62,NA,"(GMT+01:00) Europe/Amsterdam",12.5,0,0,"Run",NA,0
"274",0,1,"Ottawa","Canada",1,2,"M","Ontario",1,NA,NA,2.968,NA,NA,0,0,NA,8100,2729,NA,NA,"",0,"g708970",0,0,NA,0,"","Canada","",1,NA,0,NA,2729,"Dreadmill 1%",0,0,2,"2016-03-01T22:21:08Z","2016-03-01T17:21:08Z",NA,"",NA,NA,"(GMT-05:00) America/Toronto",0,0,0,"Run",NA,0
"275",0,1,"Saint Jeoire","France",1,2,"M","RA",1,81.1,146.2,3.364,NA,NA,0,0,NA,16825.5,5136,625,570,"[46.14 6.46]",0,"g647092",1,0,NA,1,"Saint Jeoire","France","RA",0,187,6.1,NA,5002,"05/14/2015 Saint Jeoire, RA, France",0,0,2,"2015-05-14T14:13:33Z","2015-05-14T16:13:33Z",46.14,"[46.14 6.46]",6.46,184,"(GMT+01:00) Europe/Paris",155.3,0,0,"Run",NA,NA
"276",7,0,"Konstanz","Germany",0,2,"M","BW",1,NA,NA,2.362,NA,NA,0,0,NA,9030.4,3835,383,370.1,"[46.21 6.15]",0,"",0,0,NA,0,"Geneva","Switzerland","GE",0,NA,8.4,NA,3824,"Nachtlauf",0,0,2,"2014-08-25T19:12:14Z","2014-08-25T21:12:14Z",46.21,"[46.21 6.15]",6.15,NA,"(GMT+01:00) Europe/Zurich",11,0,0,"Run",NA,3
"277",9,0,"Cardiff","United Kingdom",0,2,"M","Wales",1,NA,NA,2.889,NA,NA,1,0,NA,37003.7,13209,92,3.4,"[51.48 -3.68]",0,"g474790",0,0,NA,5,"Porthcawl","United Kingdom","",0,NA,12.5,NA,12808,"5.12 sun sea and sand",0,0,2,"2015-04-05T08:31:59Z","2015-04-05T09:31:59Z",51.48,"[51.48 -3.68]",-3.68,NA,"(GMT+00:00) Europe/London",1056.1,0,0,"Run",NA,2
"278",1,0,"","",0,2,"M","",1,NA,NA,2.741,NA,NA,0,0,NA,7484.6,2829,224.3,63.4,"[43.07 5.85]",0,"",0,0,NA,0,"","","",0,NA,5.1,NA,2731,"Sans titre",0,0,2,"2011-11-15T11:00:57Z","2011-11-15T12:00:57Z",43.07,"[43.07 5.85]",5.85,NA,"(GMT+01:00) Europe/Paris",249.8,0,0,"Run",NA,NA
"279",0,1,"San Francisco","United States",1,2,"M","CA",1,NA,NA,2.691,NA,NA,0,0,NA,5631.8,2275,89.4,65,"[37.77 -122.46]",0,"",0,0,NA,2,"San Francisco","United States","California",0,NA,3.7,NA,2093,"Recovery Run",0,0,2,"2015-11-07T00:31:45Z","2015-11-06T16:31:45Z",37.77,"[37.77 -122.46]",-122.46,NA,"(GMT-08:00) America/Los_Angeles",34.9,0,0,"Run",NA,0
"280",0,0,"Grapevine","United States",0,2,"M","TX",1,NA,NA,2.676,NA,NA,0,0,NA,3290.9,1230,35,31,"[25.12 51.34]",0,"",NA,0,NA,0,"Al Rayyan, Qatar","Qatar","Al Rayyan",0,NA,3.6,NA,1230,"AUAB morning jog",0,0,2,"2014-04-03T04:13:23Z","2014-04-03T07:13:23Z",25.12,"[25.12 51.34]",51.34,NA,"(GMT+03:00) Asia/Qatar",0,0,0,"Run",NA,NA
"281",7,0,"London","United Kingdom",0,2,"M","England",1,NA,NA,2.2,NA,NA,0,0,NA,6787.3,3104,78.4,3.5,"[1.3 103.87]",0,"",0,0,NA,0,"Singapore","Singapore","",0,NA,3.7,NA,3085,"Evening Run",0,0,2,"2014-07-20T10:14:16Z","2014-07-20T18:14:16Z",1.3,"[1.3 103.87]",103.87,NA,"(GMT+08:00) Asia/Singapore",216.2,0,0,"Run",NA,0
"282",2,1,"Sydney","Australia",1,2,"M","NSW",2,NA,150.6,2.706,NA,NA,0,0,NA,12300.9,5251,41.8,4,"[-33.92 151.14]",0,"",1,0,NA,1,"Earlwood","Australia","New South Wales",0,164,10.4,NA,4546,"Morning Run",0,0,2,"2016-01-09T18:33:28Z","2016-01-10T05:33:28Z",-33.92,"[-33.92 151.14]",151.14,104,"(GMT+10:00) Australia/Sydney",120.9,0,0,"Run",NA,0
"283",0,0,"Uberlândia","Brazil",0,2,"M","Minas Gerais",1,NA,NA,1.921,NA,NA,0,0,NA,4418.9,2491,906.1,862.7,"[-18.95 -48.24]",0,"",0,0,NA,1,"Uberlândia","Brazil","Minas Gerais",0,NA,3.5,NA,2300,"Corrida/Caminhada",0,0,2,"2015-10-02T13:12:03Z","2015-10-02T10:12:03Z",-18.95,"[-18.95 -48.24]",-48.24,NA,"(GMT-03:00) America/Sao_Paulo",44,0,0,"Run",NA,0
"284",0,0,"","Australia",0,2,"M","Victoria",1,120.2,NA,0.146,18,NA,0,0,NA,7374,50424,31.8,-65.4,"",0,"",0,0,NA,0,"","Australia","",0,NA,7.2,NA,50424,"06/14/2015 Australia",0,0,2,"2015-06-13T20:31:58Z","2015-06-14T06:31:58Z",NA,"",NA,NA,"(GMT+10:00) Australia/Melbourne",0,0,1,"Run",NA,NA
"285",13,1,"Manchester","United Kingdom",1,2,"M","England",1,NA,NA,4.24,NA,NA,0,0,NA,7204.6,1699,38.9,29,"[53.45 -2.27]",0,"g541568",0,0,NA,0,"Manchester","United Kingdom","England",0,NA,6.4,NA,1699,"11/02/2014 Manchester, England, United Kingdom",0,0,2,"2014-11-02T11:20:15Z","2014-11-02T11:20:15Z",53.45,"[53.45 -2.27]",-2.27,NA,"(GMT+00:00) Europe/London",0,0,0,"Run",NA,0
"286",2,0,"State of Pará, Brazil","Brazil",0,2,"M","PA",50,NA,NA,2.891,NA,NA,0,0,NA,21222.4,7358,1149.4,1005.8,"[-15.79 -47.84]",0,"",0,0,NA,0,"Brasília","Brazil","Distrito Federal",0,NA,4.9,NA,7342,"Morning Run",0,0,2,"2015-11-08T09:05:27Z","2015-11-08T07:05:27Z",-15.79,"[-15.79 -47.91]",-47.91,NA,"(GMT-03:00) America/Sao_Paulo",50,0,0,"Run",NA,NA
"287",1,1,"Angers","France",1,2,"M","Pays de la Loire",1,87.4,143.6,2.909,NA,NA,0,0,NA,10150.6,3806,21.8,-2.9,"[47.39 -2.43]",0,"g169980",1,0,NA,0,"Saint-Molf","France","Pays de la Loire",0,167,4.6,NA,3489,"08/22/2014 Saint-Molf, Pays de la Loire, France",0,0,2,"2014-08-22T18:19:24Z","2014-08-22T20:19:24Z",47.39,"[47.39 -2.43]",-2.43,61,"(GMT+01:00) Europe/Paris",35.1,0,0,"Run",NA,0
"288",0,0,"Joensuu","Finland",0,2,"M","North Karelia",1,NA,NA,1.773,NA,NA,0,0,NA,1544.5,2499,102,65.8,"[62.6 29.76]",0,"",0,0,NA,1,"Joensuu, Finland","Finland","North Karelia",0,NA,4.4,NA,871,"Afternoon Run",0,0,2,"2016-01-12T13:17:47Z","2016-01-12T15:17:47Z",62.6,"[62.6 29.76]",29.76,NA,"(GMT+02:00) Europe/Helsinki",41.7,0,0,"Run",NA,0
"289",0,0,"Brevard","United States",0,2,"M","North Carolina",1,NA,NA,2.761,NA,NA,0,0,NA,9994.2,3789,576.1,170.6,"[41.51 -90.57]",0,"",0,0,NA,0,"Rock Island","United States","IL",0,NA,7.5,NA,3620,"Mar 18, 2014 LSD wherever this is",0,0,2,"2014-03-18T20:56:24Z","2014-03-18T15:56:24Z",41.51,"[41.51 -90.57]",-90.57,NA,"(GMT-06:00) America/Chicago",576.3,0,0,"Run",NA,NA
"290",4,0,"Cangas","Spain",0,2,"M","GA",1,NA,NA,3.38,NA,NA,2,0,NA,7889.3,3054,64,-1.1,"[42.27 -8.79]",0,"",0,0,NA,5,"Cangas","Spain","GA",0,NA,12,NA,2334,"Carrera por la tarde",0,0,2,"2014-11-07T16:02:57Z","2014-11-07T17:02:57Z",42.27,"[42.27 -8.79]",-8.79,NA,"(GMT+01:00) Europe/Madrid",74.4,0,0,"Run",NA,0
"291",1,0,"Dayton","United States",0,2,"M","OH",1,NA,135.3,2.626,NA,NA,0,0,NA,4724.2,2224,301.8,280.1,"[39.88 -84.2]",0,"",1,0,NA,0,"Vandalia","United States","Ohio",0,168,7.3,NA,1799,"06/16/2013 Vandalia, Ohio",0,0,2,"2013-06-16T23:36:14Z","2013-06-16T19:36:14Z",39.88,"[39.88 -84.19]",-84.19,NA,"(GMT-05:00) America/New_York",20.9,0,0,"Run",NA,NA
