"","achievement_count","athlete.badge_type_id","athlete.city","athlete.country","athlete.premium","athlete.resource_state","athlete.sex","athlete.state","athlete_count","average_cadence","average_heartrate","average_speed","average_temp","average_watts","comment_count","commute","device_watts","distance","elapsed_time","elev_high","elev_low","end_latlng","flagged","gear_id","has_heartrate","has_kudoed","kilojoules","kudos_count","location_city","location_country","location_state","manual","max_heartrate","max_speed","max_watts","moving_time","name","photo_count","private","resource_state","start_date","start_date_local","start_latitude","start_latlng","start_longitude","suffer_score","timezone","total_elevation_gain","total_photo_count","trainer","type","weighted_average_watts","workout_type"
"1",6,0,"Quito","Ecuador",0,2,"F","Pichincha",3,NA,151.2,3.022,NA,89.8,0,0,0,21580,8697,3000.5,2777.3,"[-0.17 -78.49]",0,"b1350326",1,0,641.4,0,"Quito","Ecuador","Pichincha",0,175,10.9,NA,7140,"Mitro"""" :)",0,0,2,"2014-08-27T20:55:26Z","2014-08-27T15:55:26Z",-0.17,"[-0.17 -78.49]",-78.49,NA,"(GMT-05:00) America/Guayaquil",476.3,0,0,"Ride",NA,NA
"2",11,1,"Harrogate","United Kingdom",1,2,"F","England",2,NA,NA,6.314,NA,118.3,2,0,0,101702,20117,261.3,71.6,"[53.93 -1.82]",0,"",0,0,1905.3,6,"Ilkley","United Kingdom","England",0,NA,17.3,NA,16108,"Ilkley Grassington Buckden and back",0,0,2,"2014-05-26T08:20:53Z","2014-05-26T09:20:53Z",53.93,"[53.93 -1.82]",-1.82,NA,"(GMT+00:00) Europe/London",1273.3,0,0,"Ride",NA,0
"3",0,0,"Alamo","United States",0,2,"F","CA",1,NA,NA,1.629,NA,NA,0,0,NA,2739.8,1682,388.9,219.8,"[37.86 -121.97]",0,"",0,0,NA,0,"Alamo","United States","CA",0,NA,4.6,NA,1682,"Morning Short hike",0,0,2,"2013-12-19T17:05:16Z","2013-12-19T09:05:16Z",37.86,"[37.86 -121.97]",-121.97,NA,"(GMT-08:00) America/Los_Angeles",166.6,0,0,"Hike",NA,NA
"4",4,0,"Salisbury","United States",0,2,"F","NC",1,NA,NA,8.173,NA,NA,0,0,NA,9447.6,1156,282,217.9,"[35.59 -80.46]",0,"",0,0,NA,0,"Salisbury","United States","NC",0,NA,5,NA,1156,"Afternoon Run",0,0,2,"2014-04-16T19:24:56Z","2014-04-16T15:24:56Z",35.64,"[35.64 -80.45]",-80.45,NA,"(GMT-05:00) America/New_York",36.8,0,0,"Run",NA,0
"5",0,0,"Thruxton Down","United Kingdom",0,2,"F","",1,NA,NA,0,NA,0,0,0,0,0,2,5.6,5.6,"[50.82 -1.1]",0,"",0,0,0,1,"","United Kingdom","",0,NA,0,NA,2,"Morning Ride",0,0,2,"2016-01-19T08:16:35Z","2016-01-19T08:16:35Z",50.82,"[50.82 -1.1]",-1.1,NA,"(GMT+00:00) Europe/London",0,1,0,"Ride",NA,10
"6",3,0,"","United Kingdom",0,2,"F","",1,NA,NA,3.22,NA,NA,0,0,NA,4814,1543,197.4,159,"[54.66 -2.53]",0,"",0,0,NA,0,"Milburn","United Kingdom","England",0,NA,7.4,NA,1495,"Afternoon Run",0,0,2,"2014-09-11T15:57:58Z","2014-09-11T16:57:58Z",54.66,"[54.66 -2.53]",-2.53,NA,"(GMT+00:00) Europe/London",48.8,0,0,"Run",NA,0
"7",3,0,"Lochgilphead","United Kingdom",0,2,"F","Scotland",2,NA,NA,3.084,NA,NA,0,0,0,15818.6,5286,122.1,5.6,"[56.04 -5.44]",0,"",0,0,NA,1,"Lochgilphead","United Kingdom","Scotland",0,NA,14.6,NA,5130,"F1 MTB",0,0,2,"2015-04-18T14:15:58Z","2015-04-18T15:15:58Z",56.04,"[56.04 -5.44]",-5.44,NA,"(GMT+00:00) Europe/London",252.9,0,0,"Ride",NA,0
"8",13,0,"Vancouver","Canada",0,2,"F","BC",1,NA,NA,2.573,NA,NA,0,0,NA,16014.5,6367,60,-0.7,"[49.29 -123.14]",0,"",0,0,NA,0,"Vancouver","Canada","British Columbia",0,NA,8.7,NA,6223,"Feels like summer run",0,0,2,"2015-05-19T23:57:11Z","2015-05-19T16:57:11Z",49.29,"[49.29 -123.13]",-123.13,NA,"(GMT-08:00) America/Vancouver",533.3,1,0,"Run",NA,0
"9",0,0,"Nailsworth","United Kingdom",0,2,"F","",1,NA,NA,2.376,NA,NA,0,0,NA,3157.1,1386,205.1,167.4,"[51.71 -2.22]",0,"",0,0,NA,0,"","United Kingdom","",0,NA,15.6,NA,1329,"Lunch Run",0,0,2,"2016-02-22T12:49:50Z","2016-02-22T12:49:50Z",51.71,"[51.71 -2.22]",-2.22,NA,"(GMT+00:00) Europe/London",37.1,0,0,"Run",NA,0
"10",4,0,"MIDDLESEX","United States",0,2,"F","NJ",1,NA,NA,6.75,NA,140,0,0,0,43609.3,6680,160.6,7.3,"[40.58 -74.51]",0,"",0,0,904.8,0,"Middlesex","United States","NJ",0,NA,18.1,NA,6461,"Morning Ride",0,0,2,"2014-07-07T10:47:27Z","2014-07-07T06:47:27Z",40.58,"[40.58 -74.51]",-74.51,NA,"(GMT-05:00) America/New_York",556,0,0,"Ride",NA,0
"11",6,0,"Viernheim","Germany",0,2,"F","HE",1,NA,NA,4.481,NA,150,0,0,0,25781.1,6639,170.7,63,"[50.36 7.59]",0,"b1802377",0,0,863.2,1,"Koblenz","Germany","Rhineland-Palatinate",0,NA,14.6,NA,5754,"Burg Lahnstein",0,0,2,"2015-03-04T09:55:02Z","2015-03-04T10:55:02Z",50.36,"[50.36 7.59]",7.59,NA,"(GMT+01:00) Europe/Berlin",279.4,0,0,"Ride",NA,0
"12",0,1,"Seattle","United States",1,2,"F","WA",1,84,152.5,3.084,NA,NA,0,0,NA,8371.3,2953,146.8,99,"[47.42 -122.14]",0,"",1,0,NA,6,"Renton","United States","WA",0,171,3.7,NA,2714,"07/14/2015 SS with Turk strides 45",0,0,2,"2015-07-14T17:27:15Z","2015-07-14T10:27:15Z",47.42,"[47.42 -122.14]",-122.14,68,"(GMT-08:00) America/Los_Angeles",71,0,0,"Run",NA,0
"13",4,0,"redwood city","United States",0,2,"F","CA",1,NA,NA,2.932,NA,NA,1,0,NA,6063.5,2108,67.4,22.3,"[21.36 -157.9]",0,"",0,0,NA,1,"Honolulu","United States","Hawaii",0,NA,4,NA,2068,"Afternoon Run",0,0,2,"2014-10-15T02:28:58Z","2014-10-14T16:28:58Z",21.36,"[21.36 -157.9]",-157.9,NA,"(GMT-10:00) Pacific/Honolulu",57.9,0,0,"Run",NA,NA
"14",0,0,"Asheville ","United States",0,2,"F","NC",1,NA,NA,2.664,NA,NA,0,0,NA,9980.4,3964,737.5,691.5,"[35.61 -82.36]",0,"g660584",0,0,NA,11,"","United States","",0,NA,4.1,NA,3746,"Greenway 10k practice w/ Dawn ",0,0,2,"2016-04-06T22:03:32Z","2016-04-06T18:03:32Z",35.61,"[35.61 -82.36]",-82.36,NA,"(GMT-05:00) America/New_York",89.9,0,0,"Run",NA,0
"15",2,0,"Auckland ","New Zealand",0,2,"F","New Zealand",1,86.6,NA,2.634,NA,NA,0,0,NA,7000.6,3155,38.1,15.1,"[-36.87 174.62]",0,"g1221372",0,0,NA,48,"Auckland","New Zealand","Auckland",0,NA,3.2,NA,2658,"Evening Run",0,0,2,"2016-02-16T06:20:23Z","2016-02-16T19:20:23Z",-36.87,"[-36.87 174.62]",174.62,NA,"(GMT+12:00) Pacific/Auckland",21.7,0,0,"Run",NA,0
"16",0,0,"Turiúba /Buritama","Brazil",0,2,"F","SP",1,NA,NA,5.188,NA,81.6,0,0,0,13754.3,2651,406.8,382,"[-21.07 -50.15]",0,"",0,0,216.4,0,"Buritama","Brazil","São Paulo",0,NA,9.5,NA,2651,"Pedalada vespertina",0,0,2,"2015-03-31T20:20:04Z","2015-03-31T17:20:04Z",-21.07,"[-21.07 -50.15]",-50.15,NA,"(GMT-03:00) America/Sao_Paulo",40.4,0,0,"Ride",NA,0
"17",0,0,"Markelo","The Netherlands",0,2,"F","OV",1,NA,NA,0.713,NA,NA,0,0,NA,3369.6,5017,2126.9,1483.5,"[47.25 11.76]",0,"",0,0,NA,4,"","The Netherlands","",0,NA,1.4,NA,4725,"Ochtend toerskien tot 8 eralm",0,0,2,"2016-03-17T08:45:13Z","2016-03-17T09:45:13Z",47.27,"[47.27 11.78]",11.78,NA,"(GMT+01:00) Europe/Vienna",639.2,1,0,"Snowshoe",NA,NA
"18",4,0,"Stafford","United Kingdom",0,2,"F","England",2,92.4,NA,2.667,NA,NA,3,0,NA,15059.3,6243,106.9,74.9,"[52.79 -2.08]",0,"",0,0,NA,30,"","United Kingdom","",0,NA,3.6,NA,5647,"12.7 mile run... Accidentally stopped garmin at 3.3 AGAIN !!!!",0,0,2,"2016-03-05T09:19:14Z","2016-03-05T09:19:14Z",52.78,"[52.78 -2.11]",-2.11,NA,"(GMT+00:00) Europe/London",77.3,0,0,"Run",NA,0
"19",0,0,"Berlin","Germany",0,2,"F","Berlin",1,NA,NA,1.401,NA,NA,0,0,NA,3981.6,4186,59.3,47,"[52.52 13.49]",0,"",0,0,NA,0,"Berlin","Germany","Berlin",0,NA,14.3,NA,2841,"Nachmittagsspaziergang",0,0,2,"2016-01-13T15:42:47Z","2016-01-13T16:42:47Z",52.52,"[52.52 13.49]",13.49,NA,"(GMT+01:00) Europe/Berlin",11.5,0,0,"Walk",NA,NA
"20",1,0,"Bucharest","Romania",0,2,"F","Bucharest",1,NA,NA,2.748,NA,NA,0,0,NA,4748.6,2003,86,63,"[44.4 26.11]",0,"",0,0,NA,3,"Bucharest","Romania","Bucharest",0,NA,15.9,NA,1728,"Prin parc , pe langa lac alerg / Si burnita de-afara cade, tacut, usor si lent...",0,0,2,"2014-11-18T17:52:30Z","2014-11-18T19:52:30Z",44.4,"[44.4 26.11]",26.11,NA,"(GMT+02:00) Europe/Bucharest",26.7,0,0,"Run",NA,0
"21",0,0,"Haverford","United States",0,2,"F","Pennsylvania",1,NA,NA,4.787,NA,89.7,0,0,0,11235.5,2470,125.1,62.7,"[40 -75.33]",0,"",0,0,210.6,1,"Haverford","United States","Pennsylvania",0,NA,15.7,NA,2347,"Road Ride- hmmm- like the SRT better!- glad the school bus didn't cream me!",0,0,2,"2015-12-07T19:14:23Z","2015-12-07T14:14:23Z",40,"[40 -75.33]",-75.33,NA,"(GMT-05:00) America/New_York",119,0,0,"Ride",NA,0
"22",0,0,"Gdańsk","Polska",0,2,"F","pomorskie",1,NA,NA,2.497,NA,NA,0,0,NA,4987.2,2050,16.6,0,"[54.41 18.58]",0,"",0,0,NA,1,"Gdańsk","Poland","Pomeranian Voivodeship",0,NA,3.9,NA,1997,"09/09/2015 Park Regana",0,0,2,"2015-09-09T17:44:29Z","2015-09-09T19:44:29Z",54.42,"[54.42 18.6]",18.6,NA,"(GMT+01:00) Europe/Warsaw",25.9,0,0,"Run",NA,0
"23",1,1,"","United Kingdom",1,2,"F","",1,NA,NA,2.747,NA,NA,0,0,NA,8055,3714,40.4,3,"[50.42 -5.09]",0,"",0,0,NA,0,"Newquay","United Kingdom","",0,NA,5,NA,2932,"Newquay - Afternoon Run along the Coastal Path",0,0,2,"2015-08-14T15:48:07Z","2015-08-14T16:48:07Z",50.42,"[50.42 -5.09]",-5.09,NA,"(GMT+00:00) Europe/London",118.9,0,0,"Run",NA,0
"24",0,1,"Kierspe","Germany",1,2,"F","NRW",1,80.2,126.1,2.416,NA,NA,0,0,NA,10697.6,4432,370.8,335.4,"[51.1 7.55]",0,"",NA,0,NA,1,"Marienheide","Germany","NRW",0,135,2.7,NA,4428,"12/16/2013 Marienheide, NRW, Germany",0,0,2,"2013-12-16T10:07:23Z","2013-12-16T11:07:23Z",51.1,"[51.1 7.55]",7.55,71,"(GMT+01:00) Europe/Berlin",110,0,0,"Run",NA,NA
"25",5,0,"Skogby","Sweden",0,2,"F","Hallands län",1,NA,NA,2.724,NA,NA,0,0,NA,3506.1,1301,84.6,33.8,"[56.77 12.81]",0,"",0,0,NA,0,"Skogby","Sweden","Hallands län",0,NA,5.5,NA,1287,"Evening Run",0,0,2,"2015-06-08T16:46:25Z","2015-06-08T18:46:25Z",56.77,"[56.77 12.81]",12.81,NA,"(GMT+01:00) Europe/Stockholm",51.3,0,0,"Run",NA,0
"26",0,0,"New York","United States",0,2,"F","NY",1,NA,NA,2.644,NA,NA,0,0,NA,10585,4116,37.4,5.7,"[40.77 -73.98]",0,"",0,0,NA,1,"New York","United States","NY",0,NA,5.7,NA,4003,"Easy slow 6 miles",0,0,2,"2015-06-28T12:36:21Z","2015-06-28T08:36:21Z",40.77,"[40.77 -73.98]",-73.98,NA,"(GMT-05:00) America/New_York",57.4,0,0,"Run",NA,NA
"27",0,0,"London","United Kingdom",0,2,"F","",1,NA,NA,0,NA,NA,0,0,NA,0,2700,NA,NA,"",0,"",0,0,NA,0,"","United Kingdom","",1,NA,0,NA,2700,"Evening Activity",0,0,2,"2015-10-14T17:30:00Z","2015-10-14T18:30:00Z",NA,"",NA,NA,"(GMT+00:00) Europe/London",0,0,0,"Workout",NA,NA
"28",6,0,"Summerland","Canada",0,2,"F","BC",1,NA,NA,6.01,NA,131.7,0,0,0,7717.1,1331,112.8,15.7,"[49.26 -123.25]",0,"",0,0,169.2,1,"Vancouver","Canada","British Columbia",0,NA,10.1,NA,1284,"Morning commute",0,0,2,"2015-06-23T14:01:12Z","2015-06-23T07:01:12Z",49.26,"[49.26 -123.17]",-123.17,NA,"(GMT-08:00) America/Vancouver",95.4,0,0,"Ride",NA,0
"29",1,0,"Kinoulton","United Kingdom",0,2,"F","",1,NA,NA,3.279,NA,NA,0,0,NA,4812.9,1473,28,19.2,"[52.94 -1.09]",0,"",0,0,NA,1,"","United Kingdom","",0,NA,4.1,NA,1468,"Holmepierre pont run",0,0,2,"2016-04-08T10:30:42Z","2016-04-08T11:30:42Z",52.94,"[52.94 -1.09]",-1.09,NA,"(GMT+00:00) Europe/London",0,0,0,"Run",NA,0
"30",0,0,"New York","United States",0,2,"F","NY",1,68.4,NA,6.33,23,108.5,0,1,1,9615.6,1575,19.4,-15,"[40.76 -73.92]",0,"b940614",0,0,164.8,1,"New York","United States","New York",0,NA,15.7,369,1519,"06/13/2015 Commute",0,0,2,"2015-06-13T23:41:02Z","2015-06-13T19:41:02Z",40.79,"[40.79 -73.98]",-73.98,NA,"(GMT-05:00) America/New_York",63,0,0,"Ride",139,NA
"31",0,0,"Cullen","Ireland",0,2,"F","Cork",2,NA,NA,2.358,NA,NA,0,0,NA,12984.2,5555,175,125.7,"[52.11 -9.12]",0,"",0,0,NA,1,"Mullaghroe","Ireland","Cork",0,NA,3.6,NA,5506,"Morning Run",0,0,2,"2015-02-04T09:25:16Z","2015-02-04T09:25:16Z",52.11,"[52.11 -9.12]",-9.12,NA,"(GMT+00:00) Europe/Dublin",74.9,0,0,"Run",NA,0
"32",0,0,"Morpeth, UK","United Kingdom",0,2,"F","England",1,NA,NA,2.29,NA,30.4,0,0,0,7015.4,4651,46,25.3,"[55.31 -1.61]",0,"",0,0,93.2,0,"Morpeth, UK","United Kingdom","England",0,NA,6.8,NA,3063,"Afternoon Ride",0,0,2,"2016-03-31T13:13:29Z","2016-03-31T14:13:29Z",55.31,"[55.31 -1.62]",-1.62,NA,"(GMT+00:00) Europe/London",10.5,0,0,"Ride",NA,10
"33",0,0,"Magnolia","United States",0,2,"F","TX",3,NA,NA,6.347,NA,96.2,0,0,0,49422,8546,77.7,43.2,"[30.22 -95.58]",0,"",0,0,748.9,0,"Magnolia","United States","TX",0,NA,12.4,NA,7787,"Morning Ride",0,0,2,"2014-11-09T14:18:42Z","2014-11-09T08:18:42Z",30.22,"[30.22 -95.58]",-95.58,NA,"(GMT-06:00) America/Chicago",85.1,0,0,"Ride",NA,0
"34",0,0,"Bury Saint Edmunds, UK","United Kingdom",0,2,"F","England",1,NA,NA,5.207,NA,NA,0,0,0,9934.2,1932,68,58.1,"[52.24 0.75]",0,"",0,0,NA,0,"Bury Saint Edmunds, UK","United Kingdom","England",0,NA,12.1,NA,1908,"Trying to get fit",0,0,2,"2014-02-16T09:27:05Z","2014-02-16T09:27:05Z",52.24,"[52.24 0.75]",0.75,NA,"(GMT+00:00) Europe/London",0,0,0,"Ride",NA,NA
"35",2,0,"Nottingham","United Kingdom",0,2,"F","England",1,NA,NA,2.863,NA,NA,0,0,NA,3661.4,1322,93.9,68.5,"[53 -1.28]",0,"",0,0,NA,0,"Giltbrook","United Kingdom","",0,NA,4.4,NA,1279,"Evening Run",0,0,2,"2015-08-04T17:13:02Z","2015-08-04T18:13:02Z",53,"[53 -1.28]",-1.28,NA,"(GMT+00:00) Europe/London",39,0,0,"Run",NA,0
"36",3,0,"Chicago","United States",0,2,"F","IL",1,NA,NA,6.515,NA,105,0,1,0,17159.5,2859,184.8,175.2,"[41.96 -87.68]",0,"b1909516",0,0,276.5,0,"Chicago","United States","IL",0,NA,22.8,NA,2634,"Afternoon Ride",0,0,2,"2016-03-31T22:39:31Z","2016-03-31T17:39:31Z",41.89,"[41.89 -87.65]",-87.65,NA,"(GMT-06:00) America/Chicago",0,0,0,"Ride",NA,10
"37",0,1,"San Francisco","United States",1,2,"F","CA",1,NA,NA,3.151,NA,NA,0,0,NA,5467.5,1804,78.3,69.5,"[37.77 -122.45]",0,"g951831",0,0,NA,5,"San Francisco","United States","CA",0,NA,4.1,NA,1735,"Aluna run around the park",0,0,2,"2016-03-31T01:58:32Z","2016-03-30T18:58:32Z",37.77,"[37.77 -122.45]",-122.45,NA,"(GMT-08:00) America/Los_Angeles",0,0,0,"Run",NA,0
"38",2,1,"Oxenhope","United Kingdom",1,2,"F","England",1,NA,NA,2.339,NA,NA,0,0,NA,9265.8,4098,394.3,218.1,"[53.81 -1.96]",0,"",0,0,NA,0,"Oxenhope","United Kingdom","",0,NA,6.2,NA,3961,"08/18/2012 Oxenhope, United Kingdom",0,0,2,"2012-08-18T18:09:07Z","2012-08-18T19:09:07Z",53.81,"[53.81 -1.96]",-1.96,NA,"(GMT+00:00) Europe/London",177.7,0,0,"Run",NA,NA
"39",22,0,"Scottsdale","United States",0,2,"F","AZ",3,NA,NA,6.699,NA,97.4,0,0,0,59125.2,10241,533.3,460.5,"[33.65 -111.96]",0,"",0,0,860,0,"Scottsdale","United States","AZ",0,NA,11.9,NA,8826,"Sonoran parkway ",0,0,2,"2015-01-25T21:04:33Z","2015-01-25T14:04:33Z",33.65,"[33.65 -111.96]",-111.96,NA,"(GMT-07:00) America/Phoenix",232,0,0,"Ride",NA,0
"40",0,0,"Ruislip","United Kingdom",0,2,"F","England",1,NA,137.2,5.904,NA,70.4,0,0,0,8206.7,1505,56,31.1,"[51.56 -0.39]",0,"b1414348",1,0,97.8,0,"Uxbridge","United Kingdom","England",0,156,12.1,NA,1390,"Vine Street",0,0,2,"2014-10-14T17:07:15Z","2014-10-14T18:07:15Z",51.54,"[51.54 -0.48]",-0.48,NA,"(GMT+00:00) Europe/London",13.7,0,0,"Ride",NA,NA
"41",1,0,"Samet","Thailand",0,2,"F","Chon Buri",2,NA,NA,1.193,NA,NA,2,0,NA,4661.9,4571,14.9,0.2,"[13.28 100.91]",0,"",0,0,NA,3,"","Thailand","",0,NA,2.4,NA,3908,"Morning Run..มาฆบูชา 22กพ59",0,0,2,"2016-02-22T00:43:41Z","2016-02-22T07:43:41Z",13.29,"[13.29 100.91]",100.91,NA,"(GMT+07:00) Asia/Bangkok",0,0,0,"Run",NA,0
"42",9,0,"Leven","United Kingdom",0,2,"F","Scotland",1,NA,NA,2.6,NA,NA,4,0,NA,16108.8,6346,83,4.1,"[56.21 -3.01]",0,"",0,0,NA,8,"Leven","United Kingdom","Scotland",0,NA,5.8,NA,6195,"Lunch Run",0,0,2,"2015-05-23T10:16:07Z","2015-05-23T11:16:07Z",56.21,"[56.21 -3.01]",-3.01,NA,"(GMT+00:00) Europe/London",103.4,0,0,"Run",NA,0
"43",42,0,"Royal Leamington Spa","United Kingdom",0,2,"F","England",1,NA,157.1,7.069,2,162.4,0,0,0,41671.8,6045,287,149.2,"[52.46 -1.95]",0,"",1,0,957.4,9,"Birmingham","United Kingdom","England",0,183,18.5,NA,5895,"Hill reps",0,0,2,"2015-02-12T15:04:18Z","2015-02-12T15:04:18Z",52.46,"[52.46 -1.95]",-1.95,NA,"(GMT+00:00) Europe/London",928,0,0,"Ride",NA,NA
"44",11,0,"London","United Kingdom",0,2,"F","England",1,NA,NA,2.523,NA,NA,0,0,NA,5002.5,2077,57.5,15.6,"[51.41 -0.22]",0,"",0,0,NA,0,"London","United Kingdom","England",0,NA,10.3,NA,1983,"Evening Run",0,0,2,"2014-07-14T17:25:00Z","2014-07-14T18:25:00Z",51.41,"[51.41 -0.22]",-0.22,NA,"(GMT+00:00) Europe/London",40.2,0,0,"Run",NA,0
"45",1,0,"Ålgård","Norway",0,2,"F","Rogaland",2,NA,153.6,9.024,NA,205.5,0,0,0,96724.4,11624,23.4,-0.4,"[25.32 51.53]",0,"",1,0,2202.8,0,"","Qatar","Al Wakrah",0,191,16.6,NA,10718,"02/06/2015 Al Wakrah, Qatar",0,0,2,"2015-02-06T12:26:30Z","2015-02-06T15:26:30Z",24.86,"[24.86 51.52]",51.52,NA,"(GMT+03:00) Asia/Qatar",149,0,0,"Ride",NA,NA
"46",3,0,"Wadebridge PL27, UK","United Kingdom",0,2,"F","England",1,NA,NA,4.824,NA,92.8,0,0,0,44429.6,15864,133.3,4.3,"[50.51 -4.93]",0,"",0,0,854.6,0,"Wadebridge PL27, UK","United Kingdom","England",0,NA,15.9,NA,9210,"Meandering ride",0,0,2,"2014-04-27T07:06:49Z","2014-04-27T08:06:49Z",50.51,"[50.51 -4.93]",-4.93,NA,"(GMT+00:00) Europe/London",632.6,0,0,"Ride",NA,NA
"47",2,1,"","United Kingdom",1,2,"F","",1,91.7,NA,3.117,NA,NA,0,0,NA,3385.1,1174,11,4,"[51.48 -0.2]",0,"g762515",0,0,NA,6,"","United Kingdom","",0,NA,4,NA,1086,"Evening Run",0,0,2,"2016-01-21T19:54:36Z","2016-01-21T19:54:36Z",51.48,"[51.48 -0.16]",-0.16,NA,"(GMT+00:00) Europe/London",0,0,0,"Run",NA,NA
"48",11,0,"Molenhoek","Nederland",0,2,"F","Limburg",1,NA,133.9,7.847,NA,NA,0,0,0,61213.9,8987,384,363,"[51.77 5.88]",0,"b2185022",1,0,NA,9,"Molenhoek","Netherlands","Limburg",0,163,13.7,NA,7801,"07/30/2015 Molenhoek, Limburg, Netherlands",0,0,2,"2015-07-30T15:16:26Z","2015-07-30T17:16:26Z",51.77,"[51.77 5.88]",5.88,NA,"(GMT+01:00) Europe/Amsterdam",160,0,0,"Ride",NA,NA
"49",5,0,"Houston","United States",0,2,"F","Texas",1,NA,NA,3.498,NA,NA,0,0,NA,5359.5,1546,1.8,-49.4,"[29.76 -95.39]",0,"",0,0,NA,1,"Houston","United States","Texas",0,NA,4.3,NA,1532,"Afternoon Run",0,0,2,"2016-01-27T22:07:35Z","2016-01-27T16:07:35Z",29.76,"[29.76 -95.39]",-95.39,NA,"(GMT-06:00) America/Chicago",110,0,0,"Run",NA,NA
"50",8,0,"Sandton","South Africa",0,2,"F","Gauteng",2,NA,NA,2.626,NA,NA,0,0,NA,6916.8,2683,1475.8,1382.4,"[-26.01 28]",0,"",0,0,NA,0,"Sandton","South Africa","Gauteng",0,NA,3.6,NA,2634,"Evening Run ",0,0,2,"2014-12-16T15:44:58Z","2014-12-16T17:44:58Z",-26.01,"[-26.01 28.01]",28.01,NA,"(GMT+02:00) Africa/Johannesburg",115.9,0,0,"Run",NA,0
"51",12,0,"Clayton","United States",0,2,"F","North Carolina",5,NA,NA,3.639,NA,NA,0,0,NA,7933.3,2258,143.4,122,"[35.66 -78.84]",0,"",0,0,NA,0,"Holly Springs","United States","North Carolina",0,NA,5.1,NA,2180,"Evening Run",0,0,2,"2015-11-12T23:33:13Z","2015-11-12T18:33:13Z",35.66,"[35.66 -78.84]",-78.84,NA,"(GMT-05:00) America/New_York",34.3,0,0,"Run",NA,NA
"52",11,1,"Santa Clarita","United States",1,2,"F","CA",2,NA,112.4,5.669,16,67.7,1,0,0,20914.1,5184,373.8,324.6,"[34.42 -118.56]",0,"b1028051",1,0,249.9,11,"Santa Clarita","United States","California",0,136,9.3,NA,3689,"Wednesday Night Ride & Dinner",0,0,2,"2014-11-13T00:58:07Z","2014-11-12T16:58:07Z",34.42,"[34.42 -118.57]",-118.57,21,"(GMT-08:00) America/Los_Angeles",99.7,0,0,"Ride",NA,NA
"53",5,0,"Asheville","United States",0,2,"F","North Carolina",1,NA,NA,2.994,NA,NA,0,0,NA,4364.6,1489,645,613.8,"[35.62 -82.56]",0,"",0,0,NA,0,"Woodfin","United States","North Carolina",0,NA,5.2,NA,1458,"Don't run after free DQ cones",0,0,2,"2015-03-16T22:57:29Z","2015-03-16T18:57:29Z",35.62,"[35.62 -82.56]",-82.56,NA,"(GMT-05:00) America/New_York",42.1,0,0,"Run",NA,0
"54",1,0,"Vancouver","Canada",0,2,"F","BC",2,86.1,NA,2.776,NA,NA,0,0,NA,6020.5,2173,121.4,88,"[49.26 -123.25]",0,"g653154",0,0,NA,1,"Vancouver","Canada","British Columbia",0,NA,6.5,NA,2169,"6km run with Lynsey!",0,0,2,"2015-06-12T19:08:10Z","2015-06-12T12:08:10Z",49.26,"[49.26 -123.25]",-123.25,NA,"(GMT-08:00) America/Vancouver",75.7,0,0,"Run",NA,0
"55",5,0,"Spanbroek","Netherlands",0,2,"F","Noord-Holland",1,NA,NA,3.47,NA,72.8,0,0,0,29533.3,13682,41,0,"[41.39 2.17]",0,"",0,0,620,4,"Barcelona","Spain","Catalunya",0,NA,12.9,NA,8511,"Slingeren door het verkeer en mensenmassa met #3",0,0,2,"2015-10-20T11:00:25Z","2015-10-20T13:00:25Z",41.39,"[41.39 2.17]",2.17,NA,"(GMT+01:00) Europe/Madrid",127.2,0,0,"Ride",NA,NA
"56",1,0,"Meadow Springs","Australia",0,2,"F","Western Australia",1,NA,NA,1.846,NA,NA,0,0,NA,3414,1944,22.1,0.9,"[-32.49 115.75]",0,"",0,0,NA,0,"Meadow Springs","Australia","Western Australia",0,NA,3.5,NA,1849,"Morning Run",0,0,2,"2015-11-15T21:21:28Z","2015-11-16T05:21:28Z",-32.49,"[-32.49 115.75]",115.75,NA,"(GMT+08:00) Australia/Perth",29.1,0,0,"Run",NA,0
"57",7,0,"Lucena","Spain",0,2,"F","AL",2,NA,NA,3.708,NA,85.3,0,0,0,41566.3,14674,846.7,392,"[37.38 -4.47]",0,"",0,0,955.8,0,"Lucena","Spain","AL",0,NA,12.3,NA,11210,"Entrenamiento en bici matutino",0,0,2,"2014-06-29T05:56:54Z","2014-06-29T07:56:54Z",37.41,"[37.41 -4.47]",-4.47,NA,"(GMT+01:00) Europe/Madrid",1006.8,0,0,"Ride",NA,NA
"58",0,0,"Houston","United States",0,2,"F","TX",2,99.5,NA,3.323,NA,NA,5,0,NA,4991.2,1502,3,0.6,"[29.57 -95.02]",0,"",0,0,NA,17,"","United States","",0,NA,4.7,NA,1466,"Official time 24:04. First on AG. Second female. Very hot ",0,0,2,"2016-03-18T23:27:28Z","2016-03-18T18:27:28Z",29.57,"[29.57 -95.02]",-95.02,NA,"(GMT-06:00) America/Chicago",0,1,0,"Run",NA,1
"59",0,0,"Palo Alto ","United States",0,2,"F","California",1,NA,NA,3.09,NA,NA,1,0,NA,8095.4,2620,4.5,0.6,"[37.45 -122.11]",0,"",0,0,NA,3,"Palo Alto","United States","California",0,NA,9.2,NA,2620,"Whole different ballgame with a bee sting on the bottom of your foot (itch, itch)",0,0,2,"2015-06-29T18:42:11Z","2015-06-29T11:42:11Z",37.45,"[37.45 -122.11]",-122.11,NA,"(GMT-08:00) America/Los_Angeles",0,0,0,"Run",NA,0
"60",0,1,"Parkdale","Australia",1,2,"F","VIC",1,87.8,146.6,2.782,NA,NA,0,0,NA,3344.5,1204,1.2,-89.4,"[-37.84 144.97]",0,"g281954",1,0,NA,0,"Melbourne","Australia","VIC",0,157,5.4,NA,1202,"20 minute run off the bike",0,0,2,"2014-01-26T00:04:12Z","2014-01-26T11:04:12Z",-37.84,"[-37.84 144.97]",144.97,21,"(GMT+10:00) Australia/Melbourne",91,0,0,"Run",NA,0
"61",0,0,"Madrid","Spain",0,2,"F","Community of Madrid",1,NA,130.7,0.864,NA,NA,0,0,NA,2696.1,3119,NA,NA,"",0,"g1084573",1,0,NA,0,"","Spain","",0,162,3.5,NA,3119,"Entrenamiento de Fuerza",0,0,2,"2016-01-20T06:12:16Z","2016-01-20T07:12:16Z",NA,"",NA,NA,"(GMT+01:00) Europe/Madrid",0,0,1,"Run",NA,3
"62",0,0,"Inhumas","Brazil",0,2,"F","Goiás",1,NA,NA,1.827,NA,NA,0,0,NA,4292.6,2384,777.1,770.4,"[-16.37 -49.5]",0,"",0,0,NA,2,"Inhumas","Brazil","Goiás",0,NA,7.6,NA,2349,"Corrida pela manhã",0,0,2,"2015-12-01T09:16:27Z","2015-12-01T07:16:27Z",-16.37,"[-16.37 -49.5]",-49.5,NA,"(GMT-03:00) America/Sao_Paulo",0,0,0,"Run",NA,0
"63",0,0,"San Diego","United States",0,2,"F","California",1,NA,NA,2.806,NA,NA,0,0,NA,3479.5,2088,133.8,113.8,"[32.84 -117.17]",0,"",0,0,NA,0,"San Diego","United States","California",0,NA,9.6,NA,1240,"Morning Run",0,0,2,"2015-04-23T17:59:55Z","2015-04-23T10:59:55Z",32.84,"[32.84 -117.17]",-117.17,NA,"(GMT-08:00) America/Los_Angeles",12.5,0,0,"Run",NA,0
"64",6,0,"Orangevale","United States",0,2,"F","CA",1,NA,NA,2.964,NA,NA,0,0,NA,16015.2,5449,81.8,35,"[38.67 -121.21]",0,"",0,0,NA,0,"Orangevale","United States","CA",0,NA,4.8,NA,5403,"Morning Run",0,0,2,"2014-07-29T14:30:46Z","2014-07-29T07:30:46Z",38.67,"[38.67 -121.21]",-121.21,NA,"(GMT-08:00) America/Los_Angeles",133,0,0,"Run",NA,0
"65",0,1,"Conshohocken","United States",1,2,"F","PA",1,NA,NA,1.284,NA,NA,1,0,NA,2620.7,3412,102,83.4,"[40.19 -75.21]",0,"",0,0,NA,9,"","United States","",0,NA,2.5,NA,2041,"Happy hour first xc ski. Loved it!",0,0,2,"2016-01-25T21:34:28Z","2016-01-25T16:34:28Z",40.19,"[40.19 -75.21]",-75.21,NA,"(GMT-05:00) America/New_York",18.3,1,0,"BackcountrySki",NA,NA
"66",0,0,"Neutral Bay","Australia",0,2,"F","NSW",1,NA,NA,2.865,NA,NA,0,0,NA,10809.5,3904,74.8,0,"[-33.85 151.22]",0,"",NA,0,NA,0,"Kirribilli","Australia","NSW",0,NA,15,NA,3773,"27/05/2014",0,0,2,"2014-05-26T19:35:44Z","2014-05-27T05:35:44Z",-33.85,"[-33.85 151.22]",151.22,NA,"(GMT+10:00) Australia/Sydney",364.6,0,0,"Run",NA,NA
"67",0,0,"Blainville","Canada",0,2,"F","Québec",1,71.8,164.4,5.982,NA,NA,0,0,0,24256.5,4055,NA,NA,"",0,"",1,0,NA,0,"","Canada","",0,197,11,NA,4055,"Ste-marguerite - Cyclemeter",0,0,2,"2014-05-29T20:31:14Z","2014-05-29T16:31:14Z",NA,"",NA,NA,"(GMT-05:00) America/Toronto",0,0,1,"Ride",NA,NA
"68",6,0,"Mjøndalen","Norway",0,2,"F","Buskerud",1,NA,151.6,6.009,21,170.8,0,0,0,22226.8,3699,29.6,-8,"[59.75 10.02]",0,"b1900580",1,0,631.8,6,"Mjøndalen","Norway","Buskerud",0,183,11.3,NA,3699,"Hokksund pluss 3 bakkedrag bak Stamina. I fønvind- WOW!!:-)",0,0,2,"2015-06-05T16:17:20Z","2015-06-05T18:17:20Z",59.75,"[59.75 10.02]",10.02,NA,"(GMT+01:00) Europe/Oslo",202,1,0,"Ride",NA,NA
"69",0,0,"Bellevue","United States",0,2,"F","WA",1,NA,NA,4.045,NA,76.3,0,0,0,7176.2,1945,67.9,8.7,"[47.59 -122.17]",0,"",0,0,135.3,0,"Bellevue","United States","WA",0,NA,12.1,NA,1774,"Evening Ride",0,0,2,"2014-09-19T00:28:56Z","2014-09-18T17:28:56Z",47.62,"[47.62 -122.2]",-122.2,NA,"(GMT-08:00) America/Los_Angeles",82.2,0,0,"Ride",NA,4
"70",0,0,"3033 Drammen, Norway","Norway",0,2,"F","Buskerud",1,NA,NA,1.639,NA,NA,0,0,NA,5900,3600,NA,NA,"",0,"",0,0,NA,0,"","Norway","",1,NA,0,NA,3600,"Morning Run",0,0,2,"2015-01-14T08:00:00Z","2015-01-14T09:00:00Z",NA,"",NA,NA,"(GMT+01:00) Europe/Oslo",0,0,0,"Run",NA,0
"71",0,0,"Ankara","Turkey",0,2,"F","Ankara",1,NA,NA,2.531,NA,NA,0,0,NA,3500.9,1435,956,919.7,"[39.89 32.79]",0,"g385509",0,0,NA,0,"Ankara","Turkey","Ankara Province",0,NA,5,NA,1383,"22/02/2015 Ankara, Ankara Province, Turkey",0,0,2,"2015-02-22T09:12:58Z","2015-02-22T11:12:58Z",39.89,"[39.89 32.78]",32.78,NA,"(GMT+02:00) Europe/Istanbul",44.5,0,0,"Run",NA,NA
"72",2,0,"Seattle","United States",0,2,"F","Washington",1,86.8,NA,5.885,10,89.8,0,0,1,20098.4,3988,75.2,-5,"[47.66 -122.34]",0,"b1162438",0,0,306.5,8,"Seattle","United States","WA",0,NA,11.1,320,3415,"Recovery ride does a body & mind good (PS Darren, THIS is how you do a proper recovery ride)",0,0,2,"2016-02-05T19:29:55Z","2016-02-05T11:29:55Z",47.66,"[47.66 -122.34]",-122.34,NA,"(GMT-08:00) America/Los_Angeles",138,0,0,"Ride",96,NA
"73",15,0,"Beringen","Belgium",0,2,"F","Flanders",1,NA,NA,8.144,NA,148.3,1,0,0,27186.2,3354,51,4.1,"[51.05 5.22]",0,"",0,0,495,1,"Olen, Belgium","Belgium","Flanders",0,NA,11.3,NA,3338,"Namiddag ritje tussen de druppel door",0,0,2,"2014-08-22T15:23:42Z","2014-08-22T17:23:42Z",51.15,"[51.15 4.91]",4.91,NA,"(GMT+01:00) Europe/Brussels",88.5,0,0,"Ride",NA,NA
"74",4,0,"Duncan","United States",0,2,"F","Oklahoma",1,NA,NA,2.678,NA,NA,0,0,NA,16492.8,6173,349.5,326.1,"[34.52 -97.96]",0,"",0,0,NA,2,"Duncan","United States","Oklahoma",0,NA,4.3,NA,6159,"Morning Run",0,0,2,"2016-01-24T16:16:42Z","2016-01-24T10:16:42Z",34.52,"[34.52 -97.96]",-97.96,NA,"(GMT-06:00) America/Chicago",22.9,0,0,"Run",NA,0
"75",2,0,"Liverpool","United Kingdom",0,2,"F","England",1,NA,NA,4.476,NA,48,0,0,0,5680,1374,67,7.1,"[53.4 -2.99]",0,"",0,0,61,0,"Liverpool","United Kingdom","England",0,NA,11.3,NA,1269,"Morning Ride",0,0,2,"2015-01-14T09:12:21Z","2015-01-14T09:12:21Z",53.42,"[53.42 -2.92]",-2.92,NA,"(GMT+00:00) Europe/London",22.9,0,0,"Ride",NA,0
"76",2,0,"Phoenix","United States",0,2,"F","AZ",3,82.2,NA,2.705,NA,NA,0,0,NA,9434.6,3516,380.3,363.7,"[33.53 -112.05]",0,"g1062092",0,0,NA,1,"Phoenix","United States","Arizona",0,NA,5.2,NA,3488,"The Loop",0,0,2,"2016-01-07T01:02:40Z","2016-01-06T18:02:40Z",33.53,"[33.53 -112.05]",-112.05,NA,"(GMT-07:00) America/Phoenix",27.9,0,0,"Run",NA,0
"77",0,0,"Deurningen","Netherlands",0,2,"F","Overijssel",1,NA,NA,6.722,NA,NA,0,0,0,4840,720,NA,NA,"",0,"",0,0,NA,0,"","Netherlands","",1,NA,0,NA,720,"Avondrit 16.30",0,0,2,"2016-03-26T15:30:00Z","2016-03-26T16:30:00Z",NA,"",NA,NA,"(GMT+01:00) Europe/Amsterdam",0,0,0,"Ride",NA,10
"78",10,0,"Solna","Sweden",0,2,"F","Stockholm County",1,NA,NA,7.035,NA,162.6,0,0,0,20568.9,3140,55.8,3,"[59.36 18.02]",0,"",0,0,475.5,1,"Huddinge","Sweden","Stockholm County",0,NA,13.6,NA,2924,"Morning Ride",0,0,2,"2014-08-19T05:48:30Z","2014-08-19T07:48:30Z",59.23,"[59.23 18.16]",18.16,NA,"(GMT+01:00) Europe/Stockholm",161.4,0,0,"Ride",NA,NA
"79",4,0,"Manchester","United Kingdom",0,2,"F","England",3,NA,139.2,6.354,9,113,0,0,0,23546.3,5052,90.2,28,"[53.61 -2.58]",0,"b933817",1,0,418.8,4,"Salford","United Kingdom","England",0,157,10.5,NA,3706,"Home to Horwich",0,0,2,"2016-03-31T16:21:16Z","2016-03-31T17:21:16Z",53.51,"[53.51 -2.34]",-2.34,NA,"(GMT+00:00) Europe/London",190,0,0,"Ride",NA,NA
"80",1,0,"Brisbane ","",0,2,"F","QLD",7,80.4,177.6,2.934,NA,NA,3,0,NA,5061.4,1725,65.5,29,"[-27.59 153.23]",0,"",1,0,NA,8,"","","",0,197,4.3,NA,1725,"Sirromet parkrun",0,0,2,"2016-01-29T21:00:32Z","2016-01-30T07:00:32Z",-27.59,"[-27.59 153.23]",153.23,NA,"(GMT+10:00) Australia/Brisbane",51,0,0,"Run",NA,0
"81",6,0,"Lymm","United Kingdom",0,2,"F","England",1,NA,NA,5.148,NA,NA,0,0,0,22626.1,5340,73,39.9,"[53.38 -2.49]",0,"",0,0,NA,0,"Lymm","United Kingdom","England",0,NA,11.2,NA,4395,"Lunch Ride",0,0,2,"2014-05-04T11:40:49Z","2014-05-04T12:40:49Z",53.38,"[53.38 -2.49]",-2.49,NA,"(GMT+00:00) Europe/London",82.4,0,0,"Ride",NA,0
"82",40,0,"Hong Kong","Hong Kong",0,2,"F","Hong Kong Island",1,NA,151.8,7.015,NA,NA,0,0,0,74649.2,14721,88.2,17.4,"[1.31 103.84]",0,"",1,0,NA,0,"Singapore","Singapore","",0,191,14,NA,10641,"Krangi Loop with Metasport",0,0,2,"2014-05-03T22:43:06Z","2014-05-04T06:43:06Z",1.31,"[1.31 103.84]",103.84,NA,"(GMT+08:00) Asia/Singapore",774,0,0,"Ride",NA,NA
"83",9,0,"Cape Town","South Africa",0,2,"F","Western Cape",1,NA,150,4.714,20,131.6,0,0,0,39579,9547,405,57.6,"[-34.1 18.39]",0,"b1186979",1,0,1104.7,0,"Cape Town","South Africa","WC",0,184,14.8,NA,8396,"Easy Tokai",0,0,2,"2014-03-14T05:18:20Z","2014-03-14T07:18:20Z",-34.1,"[-34.1 18.39]",18.39,NA,"(GMT+02:00) Africa/Johannesburg",904,0,0,"Ride",NA,NA
"84",1,0,"Cajazeiras","Brazil",0,2,"F","Paraíba",2,NA,NA,4.027,NA,59.3,5,0,0,27932.5,7815,337.8,283.2,"[-6.89 -38.56]",0,"",0,0,411.5,37,"Cajàzeiras","Brazil","Paraíba",0,NA,11,NA,6937,"Pedalada matutina",0,0,2,"2015-11-27T08:12:27Z","2015-11-27T05:12:27Z",-6.89,"[-6.89 -38.56]",-38.56,NA,"(GMT-03:00) America/Fortaleza",131,0,0,"Ride",NA,10
"85",0,0,"Temecula","United States",0,2,"F","CA",1,NA,NA,7.867,NA,78.2,0,0,1,48403.3,6153,NA,NA,"",0,"",0,0,481.4,6,"","United States","",0,NA,12,294,6153,"First Wahoo Kickr Trainer Ride",0,0,2,"2015-07-23T21:59:54Z","2015-07-23T14:59:54Z",NA,"",NA,NA,"(GMT-08:00) America/Los_Angeles",0,0,1,"Ride",88,NA
"86",0,0,"Blumenau","Brazil",0,2,"F","Santa Catarina",1,NA,NA,4.621,NA,NA,0,0,NA,110.9,24,58.2,56.8,"[-26.81 -49.02]",0,"",0,0,NA,0,"Gaspar","Brazil","Santa Catarina",0,NA,5.1,NA,24,"Corrida ao entardecer",0,0,2,"2016-01-11T21:34:06Z","2016-01-11T19:34:06Z",-26.81,"[-26.81 -49.02]",-49.02,NA,"(GMT-03:00) America/Sao_Paulo",0,0,0,"Run",NA,NA
"87",0,0,"Madrid","Spain",0,2,"F","Comunidad de Madrid",2,NA,127.2,6.92,NA,79,0,0,0,29872.6,7049,637.7,573,"[40.47 -3.58]",0,"",1,0,341.1,0,"Madrid","Spain","Comunidad de Madrid",0,154,11.8,NA,4317,"02/28/2015 Madrid, Comunidad de Madrid, Spain",0,0,2,"2015-02-28T11:35:34Z","2015-02-28T12:35:34Z",40.47,"[40.47 -3.58]",-3.58,NA,"(GMT+01:00) Europe/Madrid",90,0,0,"Ride",NA,NA
"88",0,0,"San Diego","United States",0,2,"F","California",1,92.1,148.7,2.399,NA,NA,0,0,NA,5152.4,2148,146.2,146.2,"",0,"",1,0,NA,0,"","United States","",0,166,2.5,NA,2148,"10/04/2014",0,0,2,"2014-10-04T14:40:10Z","2014-10-04T07:40:10Z",NA,"",NA,NA,"(GMT-08:00) America/Los_Angeles",0,0,1,"Run",NA,NA
"89",13,0,"Putrajaya","Malaysia",0,2,"F","Putrajaya",1,NA,NA,6.628,NA,146,0,0,0,42244.9,8393,87.6,9.6,"[2.92 101.68]",0,"",0,0,930.4,0,"","Malaysia","",0,NA,14.6,NA,6374,"Morning Ride",0,0,2,"2016-01-02T00:14:03Z","2016-01-02T08:14:03Z",2.92,"[2.92 101.68]",101.68,NA,"(GMT+08:00) Asia/Kuala_Lumpur",512.9,0,0,"Ride",NA,0
"90",3,1,"Woodside","United States",1,2,"F","CA",1,NA,NA,2.379,NA,NA,0,0,NA,10786.9,4652,321.8,102.6,"[37.33 -122.08]",0,"g746544",0,0,NA,4,"Cupertino","United States","California",0,NA,4.2,NA,4535,"Wildcat Canyon Loop",0,0,2,"2015-05-28T13:04:34Z","2015-05-28T06:04:34Z",37.33,"[37.33 -122.08]",-122.08,NA,"(GMT-08:00) America/Los_Angeles",234,0,0,"Run",NA,0
"91",4,1,"Santa Monica","United States",1,2,"F","California",1,NA,NA,2.837,NA,NA,0,0,NA,1665.2,821,108.2,89.7,"[34.05 -118.46]",0,"",0,0,NA,0,"Los Angeles","United States","California",0,NA,5.3,NA,587,"Morning Run",0,0,2,"2015-03-17T13:57:07Z","2015-03-17T06:57:07Z",34.05,"[34.05 -118.46]",-118.46,NA,"(GMT-08:00) America/Los_Angeles",17.3,0,0,"Run",NA,0
"92",3,0,"Austin","United States",0,2,"F","Texas",1,89.2,135.5,2.682,NA,NA,0,0,NA,7253.7,3288,206,152.4,"[30.32 -97.72]",0,"g62691",1,0,NA,0,"Austin","United States","Texas",0,148,3.7,NA,2705,"07/20/2015 Austin, Texas",0,0,2,"2015-07-20T22:09:20Z","2015-07-20T17:09:20Z",30.27,"[30.27 -97.74]",-97.74,NA,"(GMT-06:00) America/Chicago",53.8,0,0,"Run",NA,NA
"93",5,0,"London","",0,2,"F","",1,NA,NA,3.12,NA,NA,0,0,NA,7019.2,2400,12.8,-11.7,"[51.5 -0.24]",0,"",0,0,NA,0,"","","",0,NA,5.8,NA,2250,"Afternoon Run",0,0,2,"2016-03-02T17:59:29Z","2016-03-02T17:59:29Z",51.5,"[51.5 -0.24]",-0.24,NA,"(GMT+00:00) Europe/London",36.4,0,0,"Run",NA,0
"94",0,0,"Cerritos","United States",0,2,"F","CA",1,NA,NA,4.224,NA,47,0,0,0,6825.7,2534,21.2,16.3,"[33.88 -118.09]",0,"",0,0,75.9,0,"Cerritos","United States","CA",0,NA,10.6,NA,1616,"Bank + Post Office",0,0,2,"2014-12-12T00:10:22Z","2014-12-11T16:10:22Z",33.88,"[33.88 -118.09]",-118.09,NA,"(GMT-08:00) America/Los_Angeles",0,0,0,"Ride",NA,NA
"95",0,0,"Wath upon Dearne","United Kingdom",0,2,"F","England",1,NA,NA,2.555,NA,NA,0,0,NA,8843,3869,53.3,18.6,"[53.5 -1.34]",0,"g273789",0,0,NA,0,"Wath Upon Dearne","United Kingdom","England",0,NA,3.7,NA,3461,"05/21/2014 Wath Upon Dearne, England, United Kingdom",0,0,2,"2014-05-21T07:57:40Z","2014-05-21T08:57:40Z",53.5,"[53.5 -1.34]",-1.34,NA,"(GMT+00:00) Europe/London",35.9,0,0,"Run",NA,0
"96",5,1,"Athens","United States",1,2,"F","GA",1,77.4,136.1,8.308,NA,171.3,0,0,0,41987.7,5306,232.1,156.7,"[33.94 -83.38]",0,"b1187611",1,0,865.7,0,"Athens","United States","GA",0,168,17.6,NA,5054,"03/19/2014 Athens, GA",0,0,2,"2014-03-19T17:25:37Z","2014-03-19T13:25:37Z",33.94,"[33.94 -83.38]",-83.38,38,"(GMT-05:00) America/New_York",379.2,0,0,"Ride",NA,NA
"97",0,0,"Virginia Beach","United States",0,2,"F","VA",1,NA,NA,1.286,NA,NA,0,0,NA,1179.2,1083,2.8,1.9,"[36.78 -76.07]",0,"g1148598",0,0,NA,0,"","United States","",0,NA,1.7,NA,917,"Afternoon Walk",0,0,2,"2016-01-03T18:20:57Z","2016-01-03T13:20:57Z",36.78,"[36.78 -76.07]",-76.07,NA,"(GMT-05:00) America/New_York",0,0,0,"Walk",NA,NA
"98",0,0,"Ljubljana","Slovenia",0,2,"F","Ljubljana",1,NA,NA,8.458,NA,NA,0,0,0,34000,4020,NA,NA,"",0,"",0,0,NA,0,"Gabrovka, Litija","Slovenia","Litija",1,NA,0,NA,4020,"Hell YAAA",0,0,2,"2014-08-01T22:00:00Z","2014-08-02T00:00:00Z",46,"[46 14.99]",14.99,NA,"(GMT+01:00) Europe/Ljubljana",0,0,0,"Ride",NA,NA
"99",15,1,"London","United Kingdom",1,2,"F","England",52,NA,NA,2.9,20,NA,1,0,0,9690.5,4885,108.2,57,"[51.16 0.16]",0,"",0,0,NA,15,"Tonbridge","United Kingdom","",0,NA,7.2,NA,3342,"How was that only 10k!!! #cyclocross #mud&blood",1,0,2,"2015-11-08T12:19:14Z","2015-11-08T12:19:14Z",51.16,"[51.16 0.16]",0.16,NA,"(GMT+00:00) Europe/London",251,1,0,"Ride",NA,NA
"100",2,1,"Daventry District, Northamptonshire, UK","United Kingdom",1,2,"F","England",1,63.4,156,4.966,20,132.9,0,0,0,25195,5294,57.6,-5,"[52.22 -0.86]",0,"b2073854",1,0,674.2,0,"Northampton","United Kingdom","",0,180,13.5,NA,5074,"06/18/2015 Northampton, United Kingdom",0,0,2,"2015-06-18T17:00:07Z","2015-06-18T18:00:07Z",52.22,"[52.22 -0.86]",-0.86,76,"(GMT+00:00) Europe/London",190,0,0,"Ride",NA,NA
"101",5,1,"Riachão do Jacuípe, Bahia, Brazil","Brazil",1,2,"F","BA",1,NA,NA,2.061,NA,NA,0,0,NA,4757,2922,224,212.4,"[-11.81 -39.38]",0,"g487415",0,0,NA,7,"Riachão do Jacuípe, Bahia, Brazil","Brazil","BA",0,NA,4.8,NA,2308,"Corrida matutina",0,0,2,"2014-10-28T08:30:46Z","2014-10-28T05:30:46Z",-11.81,"[-11.81 -39.38]",-39.38,NA,"(GMT-03:00) America/Bahia",10.6,0,0,"Run",NA,3
"102",1,0,"West Hartford","United States",0,2,"F","Connecticut",1,NA,NA,3.318,NA,NA,0,0,NA,8331.3,2680,53.8,24.7,"[41.76 -72.73]",0,"",0,0,NA,3,"West Hartford","United States","Connecticut",0,NA,5.5,NA,2511,"Afternoon Run",0,0,2,"2016-04-01T20:55:34Z","2016-04-01T16:55:34Z",41.76,"[41.76 -72.73]",-72.73,NA,"(GMT-05:00) America/New_York",51.1,0,0,"Run",NA,0
"103",1,0,"Winooski","United States",0,2,"F","VT",1,NA,NA,5.358,NA,80.7,0,0,0,5969.3,1148,99.3,41.6,"[44.5 -73.18]",0,"",0,0,89.9,0,"South Burlington","United States","VT",0,NA,12,NA,1114,"South Burlington Running",0,0,2,"2015-11-24T20:33:45Z","2015-11-24T15:33:45Z",44.46,"[44.46 -73.18]",-73.18,NA,"(GMT-05:00) America/New_York",53.5,0,0,"Ride",NA,NA
"104",0,0,"Annahilt","United Kingdom",0,2,"F","",1,NA,NA,1.585,NA,NA,0,0,NA,31762.7,39230,413.2,246.3,"[42.89 -8.5]",0,"",0,0,NA,2,"Arzúa","Spain","Galicia",0,NA,1.9,NA,20040,"03/28/2015 Camino: Arzúa, Galicia, Spain",0,0,2,"2015-03-28T05:57:00Z","2015-03-28T06:57:00Z",42.93,"[42.93 -8.16]",-8.16,NA,"(GMT+01:00) Europe/Madrid",552.1,0,0,"Walk",NA,NA
"105",0,1,"Salvador","Brasil",1,2,"F","Bahia",1,NA,NA,1.02,NA,NA,0,0,NA,3000,2940,NA,NA,"",0,"",0,0,NA,38,"","Brasil","",1,NA,0,NA,2940,"Natação A1 quase A0 série de 2x(500 + 10x50m) #feriasss",0,0,2,"2015-12-21T08:45:27Z","2015-12-21T05:45:27Z",NA,"",NA,NA,"(GMT-03:00) America/Bahia",0,1,0,"Swim",NA,NA
"106",0,0,"Putten","Nederland",0,2,"F","GE",1,NA,NA,8.298,NA,151.3,0,0,0,6240.4,778,42,18,"[52.26 5.61]",0,"b716218",0,0,113.7,0,"Putten","The Netherlands","GE",0,NA,17.6,NA,752,"Ochtendrit",0,0,2,"2015-10-06T05:16:08Z","2015-10-06T07:16:08Z",52.23,"[52.23 5.67]",5.67,NA,"(GMT+01:00) Europe/Amsterdam",14.4,0,0,"Ride",NA,0
"107",0,0,"Musselburgh","United Kingdom",0,2,"F","Scotland",1,NA,145,2.919,NA,NA,0,0,NA,4599.8,2008,95.4,63,"[55.95 -3.19]",0,"g674962",1,0,NA,0,"Edinburgh","United Kingdom","Scotland",0,172,5.6,NA,1576,"3 easy miles with beginners' group",0,0,2,"2015-04-02T11:34:57Z","2015-04-02T12:34:57Z",55.95,"[55.95 -3.19]",-3.19,NA,"(GMT+00:00) Europe/London",43.3,0,0,"Run",NA,0
"108",0,0,"RWC","United States",0,2,"F","CA",1,NA,NA,2.418,NA,NA,0,0,NA,5064.1,2103,225.5,120,"[37.38 -122.19]",0,"g15921",0,0,NA,0,"Palo Alto","United States","CA",0,NA,4.3,NA,2094,"Lunch Run",0,0,2,"2014-08-23T18:37:25Z","2014-08-23T11:37:25Z",37.38,"[37.38 -122.19]",-122.19,NA,"(GMT-08:00) America/Los_Angeles",123.9,0,0,"Run",NA,0
"109",1,1,"Santa Clara","",1,2,"F","CA",1,NA,NA,2.095,NA,NA,0,0,NA,3253.2,1599,34.6,24.4,"[37.39 -122.07]",0,"",0,0,NA,0,"Mountain View","United States","CA",0,NA,11.4,NA,1553,"Evening Run",0,0,2,"2015-01-27T04:11:55Z","2015-01-26T20:11:55Z",37.39,"[37.39 -122.07]",-122.07,NA,"(GMT-08:00) America/Los_Angeles",0,0,0,"Run",NA,0
"110",0,0,"Acreúna / Araguaína ","Brazil",0,2,"F","Goiás / Tocantins",2,NA,NA,4.737,NA,61.9,0,0,0,23117.8,5265,250.2,202,"[-7.21 -48.2]",0,"",0,0,302.3,4,"Araguaína","Brazil","Tocantins",0,NA,12.8,NA,4880,"Pedalada com meu ❤️Amor! ",0,0,2,"2015-07-28T23:14:30Z","2015-07-28T20:14:30Z",-7.21,"[-7.21 -48.2]",-48.2,NA,"(GMT-03:00) America/Araguaina",151.6,1,0,"Ride",NA,0
"111",0,0,"Newport ","United States",0,2,"F","RI",1,NA,NA,0.647,NA,NA,0,0,NA,1737.4,2685,NA,NA,"",0,"",0,0,NA,0,"","United States","",0,NA,0.8,NA,2685,"Morning Swim",0,0,2,"2016-02-12T12:44:28Z","2016-02-12T04:44:28Z",NA,"",NA,NA,"(GMT-08:00) America/Los_Angeles",0,0,1,"Swim",NA,NA
"112",3,0,"La Paz","Mexico",0,2,"F","B.C.S.",1,NA,NA,1.833,NA,NA,0,0,NA,2794,1526,25,22,"[24.14 -110.31]",0,"",0,0,NA,2,"La Paz","Mexico","Baja California Sur",0,NA,4,NA,1524,"Que verguenza :(",0,0,2,"2015-11-19T02:21:21Z","2015-11-18T19:21:21Z",24.14,"[24.14 -110.31]",-110.31,NA,"(GMT-07:00) America/Mazatlan",0,0,0,"Run",NA,0
"113",0,0,"New York","United States",0,2,"F","New York",1,NA,NA,2.664,NA,NA,0,0,NA,4761,1813,210.7,208.1,"[41.84 -87.95]",0,"",0,0,NA,0,"Oak Brook","United States","Illinois",0,NA,11.5,NA,1787,"Afternoon Run",0,0,2,"2015-03-20T18:31:06Z","2015-03-20T13:31:06Z",41.84,"[41.84 -87.95]",-87.95,NA,"(GMT-06:00) America/Chicago",0,0,0,"Run",NA,3
"114",0,0,"Landgraaf","Nederland",0,2,"F","Limburg",1,NA,NA,3.001,NA,NA,0,0,NA,2040.8,844,150.9,146.6,"[50.86 6.04]",0,"g239315",0,0,NA,0,"Kerkrade","The Netherlands","Limburg",0,NA,4,NA,680,"05/02/2014 Kerkrade, Limburg, The Netherlands",0,0,2,"2014-02-05T18:27:00Z","2014-02-05T19:27:00Z",50.86,"[50.86 6.04]",6.04,NA,"(GMT+01:00) Europe/Amsterdam",0,0,0,"Run",NA,NA
"115",6,1,"Pola De Laviana","Spain",1,2,"F","Principality of Asturias",1,NA,NA,1.911,NA,NA,0,0,NA,5664,3555,341.6,266.1,"[43.25 -5.57]",0,"",0,0,NA,2,"Valle del Nalón, Spain","Spain","Asturias",0,NA,4,NA,2964,"Carrera por la tarde",0,0,2,"2014-04-15T15:20:55Z","2014-04-15T17:20:55Z",43.26,"[43.26 -5.57]",-5.57,NA,"(GMT+01:00) Europe/Madrid",159.6,0,0,"Run",NA,0
"116",0,1,"Truckee","United States",1,2,"F","California",1,NA,NA,0,NA,0,0,0,0,0,4206,1683.2,1681.2,"",0,"b732904",0,0,NA,1,"","United States","",0,NA,0,NA,4206,"01/27/2015",0,0,2,"2015-01-27T20:57:28Z","2015-01-27T12:57:28Z",NA,"",NA,NA,"(GMT-08:00) America/Los_Angeles",0,0,1,"Ride",NA,NA
"117",0,0,"Wagga Wagga","Australia",0,2,"F","NSW",1,NA,NA,5.677,NA,154,0,0,0,8901.4,1932,243,176.7,"[-35.1 147.37]",0,"b931539",0,0,241.4,0,"Hillgrove","Australia","NSW",0,NA,12.2,NA,1568,"Evening Ride",0,0,2,"2014-03-27T08:39:40Z","2014-03-27T19:39:40Z",-35.04,"[-35.04 147.35]",147.35,NA,"(GMT+10:00) Australia/Sydney",46.1,0,0,"Ride",NA,4
"118",1,0,"Lathom","United Kingdom",0,2,"F","England",1,NA,NA,5.832,NA,85.6,0,1,0,13436.6,33554,72.9,14,"[53.59 -2.81]",0,"",0,0,197.2,4,"Ormskirk","United Kingdom","",0,NA,13,NA,2304,"Ride  to work ",0,0,2,"2015-10-20T07:21:54Z","2015-10-20T08:21:54Z",53.59,"[53.59 -2.81]",-2.81,NA,"(GMT+00:00) Europe/London",97.7,0,0,"Ride",NA,NA
"119",44,0,"Burton Upon Trent","United Kingdom",0,2,"F","England",1,NA,NA,5.756,NA,82.4,0,0,0,53032.4,9441,144.1,41.2,"[52.79 -1.65]",0,"",0,0,759.1,2,"Burton Upon Trent","United Kingdom","England",0,NA,10.1,NA,9214,"Morning Ride",0,0,2,"2014-04-21T08:23:48Z","2014-04-21T09:23:48Z",52.79,"[52.79 -1.65]",-1.65,NA,"(GMT+00:00) Europe/London",266.8,0,0,"Ride",NA,0
"120",1,0,"Orlando","United States",0,2,"F","FL",1,NA,NA,2.303,NA,NA,0,0,NA,3928.2,1724,34,27.4,"[28.55 -81.37]",0,"",0,0,NA,0,"Orlando","United States","Florida",0,NA,4.5,NA,1706,"Afternoon quick run",0,0,2,"2015-01-09T22:04:15Z","2015-01-09T17:04:15Z",28.55,"[28.55 -81.37]",-81.37,NA,"(GMT-05:00) America/New_York",0,0,0,"Run",NA,0
"121",7,0,"Crested Butte","United States",0,2,"F","CO",2,NA,NA,3.442,NA,76,0,0,0,21156.4,7081,2975.5,2692.1,"[38.86 -106.96]",0,"",0,0,467.4,1,"Crested Butte","United States","CO",0,NA,11.8,NA,6147,"Afternoon Ride",0,0,2,"2015-07-02T23:46:06Z","2015-07-02T17:46:06Z",38.86,"[38.86 -106.96]",-106.96,NA,"(GMT-07:00) America/Denver",398.6,0,0,"Ride",NA,0
"122",0,1,"Lindfield","Australia",1,2,"F","NSW",1,54.3,92.8,1.519,NA,NA,0,0,NA,1852.6,2278,102.8,67.9,"[-33.77 151.19]",0,"g1139422",1,0,NA,5,"East Lindfield","Australia","NSW",0,116,1.7,NA,1220,"Afternoon Run",0,0,2,"2015-12-31T06:04:54Z","2015-12-31T17:04:54Z",-33.77,"[-33.77 151.19]",151.19,10,"(GMT+10:00) Australia/Sydney",31.4,0,0,"Run",NA,NA
"123",0,0,"Shreveport","United States",0,2,"F","Louisiana",1,NA,NA,5.344,NA,76.2,0,0,0,21743.1,4657,78.3,44.8,"[32.49 -93.75]",0,"",0,0,310.2,1,"Shreveport","United States","Louisiana",0,NA,12.3,NA,4069,"Did we beat yesterday's speed",0,0,2,"2016-01-19T23:48:28Z","2016-01-19T17:48:28Z",32.49,"[32.49 -93.75]",-93.75,NA,"(GMT-06:00) America/Chicago",86,0,0,"Ride",NA,NA
"124",4,0,"Billingshurst ","United Kingdom",0,2,"F","England",8,88,NA,2.512,NA,NA,0,0,NA,16477.4,7036,59.7,30.6,"[51.06 -0.36]",0,"g825617",0,0,NA,0,"Horsham","United Kingdom","England",0,NA,3.4,NA,6560,"Morning Run",0,0,2,"2016-01-24T09:06:21Z","2016-01-24T09:06:21Z",51.06,"[51.06 -0.36]",-0.36,NA,"(GMT+00:00) Europe/London",75.3,0,0,"Run",NA,NA
"125",0,0,"Lichfield","United Kingdom",0,2,"F","Staffordshire County",1,NA,NA,1.711,NA,NA,0,0,NA,13868.6,25009,1093.4,859.1,"[61.47 9.46]",0,"",0,0,NA,0,"","United Kingdom","",0,NA,9.1,NA,8105,"Morning Activity",0,0,2,"2016-03-13T08:57:04Z","2016-03-13T09:57:04Z",61.47,"[61.47 9.46]",9.46,NA,"(GMT+01:00) Europe/Oslo",400.1,0,0,"NordicSki",NA,NA
"126",0,0,"Werribee","Australia",0,2,"F","VIC",1,NA,NA,2.961,NA,NA,0,0,NA,6088.2,2061,28,9,"[-37.91 144.65]",0,"",0,0,NA,0,"Werribee","Australia","VIC",0,NA,4.5,NA,2056,"Morning Run",0,0,2,"2014-04-23T22:21:03Z","2014-04-24T08:21:03Z",-37.91,"[-37.91 144.65]",144.65,NA,"(GMT+10:00) Australia/Melbourne",23.4,0,0,"Run",NA,NA
"127",0,0,"Amsterdam","Italy",0,2,"F","Noord-Holland",1,NA,NA,0.833,NA,NA,0,0,NA,3000,3600,NA,NA,"",0,"",0,0,NA,0,"","Italy","",1,NA,0,NA,3600,"Bootcamp @beatrix",0,0,2,"2015-12-30T19:12:41Z","2015-12-30T20:12:41Z",NA,"",NA,NA,"(GMT+01:00) Europe/Rome",0,0,0,"Run",NA,NA
"128",0,0,"Minneapolis","United States",0,2,"F","MN",1,NA,NA,2.223,NA,NA,0,0,NA,5029.7,2279,254,249.8,"[44.93 -93.23]",0,"",0,0,NA,1,"Minneapolis","United States","MN",0,NA,3.6,NA,2263,"Morning Walk/Run",0,0,2,"2015-05-11T10:20:49Z","2015-05-11T05:20:49Z",44.92,"[44.92 -93.23]",-93.23,NA,"(GMT-06:00) America/Chicago",0,0,0,"Run",NA,0
"129",0,0,"안동시","South Korea",0,2,"F","경상북도",1,NA,NA,4.341,NA,60.7,2,0,0,12830.6,6475149,229.7,86,"[36.55 128.76]",0,"",0,0,179.4,3,"Andong","South Korea","Gyeongsangbuk-do",0,NA,15.7,NA,2956,"야간 라이딩",0,0,2,"2015-08-05T15:03:44Z","2015-08-06T00:03:44Z",36.57,"[36.57 128.77]",128.77,NA,"(GMT+09:00) Asia/Seoul",223.8,0,0,"Ride",NA,0
"130",0,0,"San Francisco","United States",0,2,"F","CA",2,88.4,152,3.216,NA,NA,0,0,NA,3280.3,1034,31,14,"[37.73 -122.48]",0,"g799715",1,0,NA,5,"San Francisco","United States","California",0,174,3.9,NA,1020,"cool down""""",0,0,2,"2015-10-28T02:25:08Z","2015-10-27T19:25:08Z",37.73,"[37.73 -122.48]",-122.48,NA,"(GMT-08:00) America/Los_Angeles",16.7,0,0,"Run",NA,NA
"131",0,0,"","",0,2,"F","",1,72,138.3,8.077,NA,127.4,0,0,1,21790.4,2698,NA,NA,"",0,"",1,0,343.7,0,"","","",0,150,14.5,222,2698,"45 min Peloton Ride with Jenn Sherman",0,0,2,"2016-03-22T20:55:06Z","2016-03-22T13:55:06Z",NA,"",NA,NA,"(GMT-08:00) America/Los_Angeles",0,0,1,"Ride",127,NA
"132",2,0,"Sydney","Australia",0,2,"F","NSW",2,NA,148.1,3.296,26,88.3,0,0,0,10168.3,3460,120.2,41.4,"[-32.73 152.11]",0,"b1706962",1,0,272.5,0,"Salamander Bay","Australia","New South Wales",0,193,10.9,NA,3085,"Christmas ride!",0,0,2,"2014-12-25T04:38:58Z","2014-12-25T15:38:58Z",-32.73,"[-32.73 152.11]",152.11,NA,"(GMT+10:00) Australia/Sydney",260,0,0,"Ride",NA,NA
"133",0,0,"Drammen","Norway",0,2,"F","Buskerud",1,NA,NA,1.568,NA,NA,0,0,NA,5469.4,4455,198.9,69.9,"[59.71 10.26]",0,"",0,0,NA,0,"Drammen","Norway","Buskerud",0,NA,5.5,NA,3488,"Afternoon Run",0,0,2,"2015-06-12T14:44:11Z","2015-06-12T16:44:11Z",59.71,"[59.71 10.26]",10.26,NA,"(GMT+01:00) Europe/Oslo",202.2,0,0,"Run",NA,NA
"134",2,0,"Terre Haute","United States",0,2,"F","Indiana",2,NA,NA,2.336,NA,62.1,0,0,0,13750.5,9094,204.4,169.7,"[39.34 -87.37]",0,"",0,0,365.7,6,"Terre Haute","United States","Indiana",0,NA,9.5,NA,5887,"Diversions with the dog",0,0,2,"2016-04-03T20:25:51Z","2016-04-03T16:25:51Z",39.34,"[39.34 -87.37]",-87.37,NA,"(GMT-05:00) America/Indiana/Indianapolis",99.1,0,0,"Ride",NA,10
"135",0,0,"Calgary","Canada",0,2,"F","Alberta",1,83.2,166.3,2.852,NA,NA,0,0,NA,6004.4,2111,1061.4,1051,"[51.03 -114.07]",0,"g856575",1,0,NA,0,"Calgary","Canada","Alberta",0,174,6.4,NA,2105,"05/30/2015 Calgary, Alberta, Canada",0,0,2,"2015-05-30T14:31:49Z","2015-05-30T08:31:49Z",51.02,"[51.02 -114.08]",-114.08,NA,"(GMT-07:00) America/Edmonton",0,0,0,"Run",NA,0
"136",0,0,"Bratislava","Slovakia",0,2,"F","",1,76.3,135.1,5.054,NA,NA,1,0,0,52180.5,10325,NA,NA,"",0,"",1,0,NA,1,"","Slovakia","",0,151,6.3,NA,10325,"Morning Ride",0,0,2,"2016-01-10T08:09:05Z","2016-01-10T09:09:05Z",NA,"",NA,NA,"(GMT+01:00) Europe/Bratislava",0,0,1,"Ride",NA,NA
"137",0,0,"Oswestry","United Kingdom",0,2,"F","England",2,NA,NA,2.595,NA,105.8,0,0,0,17411.6,8538,336.1,137.5,"[52.86 -3.06]",0,"b1652614",0,0,710,2,"Oswestry","United Kingdom","England",0,NA,12.6,NA,6709,"Candy Woods New Downhill Bit",0,0,2,"2016-04-01T09:07:32Z","2016-04-01T10:07:32Z",52.86,"[52.86 -3.06]",-3.06,NA,"(GMT+00:00) Europe/London",417.2,0,0,"Ride",NA,10
"138",2,0,"Wyckoff","United States",0,2,"F","NJ",2,78.3,NA,6.724,30,106.5,0,0,0,29422.6,4416,604.8,441,"[42.3 -74.25]",0,"",0,0,466.2,6,"Windham","United States","New York",0,NA,15.6,NA,4376,"06/13/2015 Windham, New York",0,0,2,"2015-06-13T15:32:02Z","2015-06-13T11:32:02Z",42.3,"[42.3 -74.25]",-74.25,NA,"(GMT-05:00) America/New_York",288,0,0,"Ride",NA,NA
"139",0,0,"Stoke On Trent","United Kingdom",0,2,"F","England",2,NA,NA,5.108,NA,62.2,0,0,0,15641.9,3108,105.5,50,"[53.09 -2.28]",0,"",0,0,190.3,0,"Crewe, Cheshire East CW1, UK","United Kingdom","England",0,NA,10.6,NA,3062,"Afternoon Ride",0,0,2,"2015-04-17T15:08:00Z","2015-04-17T16:08:00Z",53.12,"[53.12 -2.47]",-2.47,NA,"(GMT+00:00) Europe/London",76,0,0,"Ride",NA,NA
"140",0,0,"Lübeck","Germany",0,2,"F","SH",1,NA,NA,0,NA,NA,0,0,0,135000,0,NA,NA,"",0,"",0,0,NA,1,"","Germany","",1,NA,0,NA,0,"alcudia-selva-luc-puig major-soller-bunyola-st.maria-alcudia",0,0,2,"2015-04-22T08:00:00Z","2015-04-22T10:00:00Z",NA,"",NA,NA,"(GMT+01:00) Europe/Berlin",0,0,0,"Ride",NA,0
"141",4,0,"Newmarket","Australia",0,2,"F","QLD",1,NA,NA,3.051,NA,NA,0,0,NA,8473.2,2805,72.8,2,"[-27.44 153.01]",0,"",0,0,NA,1,"Newmarket","Australia","QLD",0,NA,5.2,NA,2777,"Morning Run",0,0,2,"2014-04-14T21:24:43Z","2014-04-15T07:24:43Z",-27.44,"[-27.44 153.01]",153.01,NA,"(GMT+10:00) Australia/Brisbane",126.6,0,0,"Run",NA,0
"142",0,1,"England, UK","United Kingdom",1,2,"F","England",1,53.5,NA,3.997,20,32,3,0,0,303.8,76,95.2,92.4,"[52.91 -2.49]",0,"b2772149",0,0,2.4,17,"Market Drayton","United Kingdom","England",0,NA,5.4,NA,76,"Yep, I rode home like this ",0,0,2,"2016-04-10T21:32:02Z","2016-04-10T22:32:02Z",52.91,"[52.91 -2.49]",-2.49,NA,"(GMT+00:00) Europe/London",0,1,0,"Ride",NA,10
"143",0,0,"Bremen","Germany",0,2,"F","Bremen",1,NA,NA,0,NA,NA,0,0,NA,0,0,0.6,0.6,"[19.64 -156]",0,"",0,0,NA,0,"","Germany","",0,NA,0,NA,0,"Morgenaktivität",0,0,2,"2015-10-10T16:58:53Z","2015-10-10T06:58:53Z",19.64,"[19.64 -156]",-156,NA,"(GMT-10:00) Pacific/Honolulu",0,0,0,"Workout",NA,NA
"144",0,0,"San Diego","United States",0,2,"F","California",1,NA,127.1,0,NA,NA,0,0,0,0,5859,NA,NA,"",0,"b1598006",1,0,NA,6,"","United States","",0,180,0,NA,5859,"empty gym and fancy elliptical ",1,0,2,"2016-04-02T00:44:29Z","2016-04-01T17:44:29Z",NA,"",NA,NA,"(GMT-08:00) America/Los_Angeles",0,1,1,"Ride",NA,10
"145",4,0,"Edinburgh","United Kingdom",0,2,"F","Scotland",1,NA,NA,3.119,NA,NA,0,0,NA,6406.6,2061,83.1,66.3,"[55.95 -3.21]",0,"g659281",0,0,NA,0,"Edinburgh","United Kingdom","Scotland",0,NA,8.1,NA,2054,"Canal",0,0,2,"2015-07-22T16:21:16Z","2015-07-22T17:21:16Z",55.95,"[55.95 -3.21]",-3.21,NA,"(GMT+00:00) Europe/London",22.9,0,0,"Run",NA,0
"146",0,0,"Bloomington","United States",0,2,"F","IN",1,NA,NA,2.996,NA,NA,0,0,NA,33796.2,11280,NA,NA,"",0,"",0,0,NA,8,"","United States","",1,NA,0,NA,11280,"ohio run on olentangy trail: ) ",0,0,2,"2015-04-04T17:50:00Z","2015-04-04T13:50:00Z",NA,"",NA,NA,"(GMT-05:00) America/Indiana/Indianapolis",0,0,0,"Run",NA,0
"147",0,0,"San Francisco","United States",0,2,"F","California",1,NA,NA,6.006,NA,61.3,0,0,0,3297.2,570,37.8,26,"[37.38 -122.03]",0,"",0,0,33.7,0,"Sunnyvale","United States","CA",0,NA,9,NA,549,"Lunch PA Ride",0,0,2,"2014-09-26T18:10:52Z","2014-09-26T11:10:52Z",37.36,"[37.36 -122.02]",-122.02,NA,"(GMT-08:00) America/Los_Angeles",0,0,0,"Ride",NA,NA
"148",7,0,"","United Kingdom",0,2,"F","",7,NA,179.6,2.652,NA,NA,0,0,NA,10306,3886,17.8,7.8,"[51.64 -3.94]",0,"",1,0,NA,17,"","United Kingdom","",0,188,5.8,NA,3886,"Swans 10k Fun Run",0,0,2,"2016-03-28T10:59:56Z","2016-03-28T11:59:56Z",51.64,"[51.64 -3.94]",-3.94,NA,"(GMT+00:00) Europe/London",0,3,0,"Run",NA,1
"149",2,0,"San Francisco","United States",0,2,"F","CA",1,NA,NA,6.067,NA,105.7,0,0,0,11508.2,2100,81,5.3,"[37.72 -122.48]",0,"b1153348",0,0,200.4,0,"San Francisco","United States","CA",0,NA,16.7,NA,1897,"Morning Ride",0,0,2,"2014-04-29T16:13:01Z","2014-04-29T09:13:01Z",37.78,"[37.78 -122.49]",-122.49,NA,"(GMT-08:00) America/Los_Angeles",37.6,0,0,"Ride",NA,0
"150",14,0,"Lindfield","Australia",0,2,"F","NSW",1,NA,NA,5.891,NA,NA,0,0,0,17590.1,3054,76.3,9.7,"[-33.78 151.15]",0,"",0,0,NA,0,"Killara","Australia","New South Wales",0,NA,13.3,NA,2986,"Morning Ride",0,0,2,"2015-01-06T21:42:15Z","2015-01-07T08:42:15Z",-33.78,"[-33.78 151.14]",151.14,NA,"(GMT+10:00) Australia/Sydney",384.3,0,0,"Ride",NA,NA
"151",11,0,"Seattle","United States",0,2,"F","WA",1,71.3,141.2,6.057,8,133.1,0,0,1,37834.9,6596,143.2,-55.8,"[47.7 -122.32]",0,"b1431094",1,0,831.3,0,"Seattle","United States","Washington",0,180,17.8,683,6246,"hills",0,0,2,"2015-03-25T01:15:13Z","2015-03-24T18:15:13Z",47.7,"[47.7 -122.32]",-122.32,NA,"(GMT-08:00) America/Los_Angeles",709,0,0,"Ride",158,NA
"152",8,0,"Brisbane ","Australia",0,2,"F","Queensland",2,78.6,NA,2.802,NA,NA,0,0,NA,8001.1,2855,21.5,4.4,"[-27.49 153.01]",0,"",0,0,NA,1,"West End","Australia","Queensland",0,NA,3.8,NA,2855,"St. Lucia 8",0,0,2,"2015-08-09T06:52:59Z","2015-08-09T16:52:59Z",-27.49,"[-27.49 153.01]",153.01,NA,"(GMT+10:00) Australia/Brisbane",39.6,0,0,"Run",NA,0
"153",2,0,"Whitehaven ","United Kingdom",0,2,"F","",2,NA,NA,3.022,NA,NA,1,0,NA,12148.7,4298,118.9,102.7,"[54.61 -3.52]",0,"g631736",0,0,NA,35,"Workington","United Kingdom","",0,NA,4.2,NA,4020,"Club run. Warm up 10x4mins cool down",0,0,2,"2015-03-26T18:32:14Z","2015-03-26T18:32:14Z",54.61,"[54.61 -3.52]",-3.52,NA,"(GMT+00:00) Europe/London",106.5,0,0,"Run",NA,0
"154",12,1,"Boulder","United States",1,2,"F","Colorado",1,NA,NA,7.514,12,139.3,3,0,0,37278.5,810885,1826.8,1453,"[40.06 -105.21]",0,"b801928",0,0,691,7,"","United States","",0,NA,21.6,NA,4961,"Chasing a greyhound chasing a rabbit",0,0,2,"2016-02-23T10:17:43Z","2016-02-23T03:17:43Z",40.06,"[40.06 -105.22]",-105.22,NA,"(GMT-07:00) America/Denver",402,0,0,"Ride",NA,NA
"155",0,0,"","United Kingdom",0,2,"F","England",1,NA,NA,1.792,NA,NA,0,0,NA,7075.8,4007,336.4,86.9,"[54.6 -3.13]",0,"",0,0,NA,0,"Keswick","United Kingdom","England",0,NA,4.5,NA,3949,"Latrigg",0,0,2,"2014-04-23T12:17:27Z","2014-04-23T13:17:27Z",54.6,"[54.6 -3.13]",-3.13,NA,"(GMT+00:00) Europe/London",354.1,0,0,"Run",NA,0
"156",0,0,"Canyon Lake","United States",0,2,"F","CA",1,NA,NA,2.494,NA,NA,0,0,NA,6629.2,2658,452.7,421.9,"[33.68 -117.25]",0,"",0,0,NA,0,"Canyon Lake","United States","CA",0,NA,3.7,NA,2658,"Morning Run",0,0,2,"2014-07-07T13:20:07Z","2014-07-07T06:20:07Z",33.68,"[33.68 -117.25]",-117.25,NA,"(GMT-08:00) America/Los_Angeles",105.9,0,0,"Run",NA,0
"157",0,0,"Philadelphia","United States",0,2,"F","Pennsylvania",1,NA,NA,3.496,NA,57.3,0,0,0,2488.8,5857,32.9,13.2,"[39.97 -75.21]",0,"",0,0,40.8,0,"Philadelphia","United States","Pennsylvania",0,NA,7.8,NA,712,"Back from the farmers market",0,0,2,"2015-09-19T16:25:27Z","2015-09-19T12:25:27Z",39.95,"[39.95 -75.21]",-75.21,NA,"(GMT-05:00) America/New_York",11.2,0,0,"Ride",NA,0
"158",3,1,"Sydney","Australia",1,2,"F","NSW",1,NA,105.1,1.457,NA,NA,0,0,NA,5077,3635,37.6,5.4,"[-33.87 151.21]",0,"g173100",1,0,NA,0,"The Rocks","Australia","NSW",0,125,3,NA,3484,"Power walk ",0,0,2,"2014-09-29T21:00:11Z","2014-09-30T07:00:11Z",-33.87,"[-33.87 151.21]",151.21,45,"(GMT+10:00) Australia/Sydney",49,0,0,"Run",NA,0
"159",5,0,"Olympia","United States",0,2,"F","WA",1,NA,NA,2.368,NA,NA,0,0,NA,3637,1548,60.4,43.1,"[47.01 -122.88]",0,"",0,0,NA,0,"Olympia","United States","WA",0,NA,6.6,NA,1536,"Morning Run",0,0,2,"2014-06-05T14:12:37Z","2014-06-05T07:12:37Z",47.02,"[47.02 -122.88]",-122.88,NA,"(GMT-08:00) America/Los_Angeles",26.9,0,0,"Run",NA,0
"160",0,0,"Hudsonville","United States",0,2,"F","Michigan",1,NA,NA,2.953,NA,NA,0,0,NA,6437.4,2180,NA,NA,"",0,"",0,0,NA,0,"","United States","",1,NA,0,NA,2180,"Morning Run",0,0,2,"2015-08-17T10:32:22Z","2015-08-17T06:32:22Z",NA,"",NA,NA,"(GMT-05:00) America/Detroit",0,0,0,"Run",NA,NA
"161",3,0,"Eindhoven","Netherlands",0,2,"F","Noord-Brabant",11,NA,NA,2.794,NA,NA,0,0,NA,11887.6,6079,19.5,14.2,"[51.45 5.49]",0,"",0,0,NA,0,"Eindhoven","Netherlands","Noord-Brabant",0,NA,6.4,NA,4254,"4(1000m) p400m + 3(200m) p200m",0,0,2,"2015-09-08T17:02:07Z","2015-09-08T19:02:07Z",51.45,"[51.45 5.49]",5.49,NA,"(GMT+01:00) Europe/Amsterdam",0,0,0,"Run",NA,NA
"162",0,0,"Seoul","South Korea",0,2,"F","",1,NA,NA,6.862,NA,NA,0,0,0,7486,1091,28.4,3.9,"[37.57 127.05]",0,"",0,0,NA,0,"Seoul","South Korea","",0,NA,12.4,NA,1091,"8/10(2)",0,0,2,"2015-08-10T13:57:12Z","2015-08-10T22:57:12Z",37.53,"[37.53 127.06]",127.06,NA,"(GMT+09:00) Asia/Seoul",45.5,0,0,"Ride",NA,0
"163",0,0,"Ryedale District, North Yorkshire, UK","United Kingdom",0,2,"F","England",1,NA,NA,2.659,NA,NA,0,0,NA,9819.3,3993,51.1,28.4,"[54.25 -0.96]",0,"g629563",0,0,NA,0,"Ryedale District, North Yorkshire, UK","United Kingdom","England",0,NA,4.7,NA,3693,"Afternoon Run",0,0,2,"2016-03-28T14:47:43Z","2016-03-28T15:47:43Z",54.26,"[54.26 -0.96]",-0.96,NA,"(GMT+00:00) Europe/London",22.6,0,0,"Run",NA,0
"164",9,0,"Guernsey","Guernsey",0,2,"F","",3,85,135.9,2.355,NA,NA,0,0,NA,24209.9,10702,39.5,0.3,"[49.43 -2.66]",0,"g1190672",1,0,NA,6,"","Guernsey","",0,206,3.1,NA,10280,"Imperial to """"pond"""" and back with Estelle",0,0,2,"2016-03-06T08:05:23Z","2016-03-06T08:05:23Z",49.43,"[49.43 -2.66]",-2.66,NA,"(GMT+00:00) Europe/Guernsey",209.6,0,0,"Run",NA,NA
"165",0,0,"Marietta","United States",0,2,"F","OH",1,NA,NA,2.636,NA,NA,0,0,NA,4832.7,1833,196.2,184.3,"[39.35 -81.54]",0,"",0,0,NA,1,"Vienna","United States","West Virginia",0,NA,4.9,NA,1833,"Morning Run",0,0,2,"2015-05-10T14:38:31Z","2015-05-10T10:38:31Z",39.34,"[39.34 -81.54]",-81.54,NA,"(GMT-05:00) America/New_York",0,1,0,"Run",NA,0
"166",5,0,"Bauru","Brasil",0,2,"F","São Paulo",4,NA,NA,4.395,NA,NA,2,0,0,53239.7,18720,637.9,505.4,"[-22.57 -48.82]",0,"",0,0,NA,22,"Lençóis Paulista","Brazil","São Paulo",0,NA,15.8,NA,12115,"Lençois- cach Vangloria - Lençois",0,0,2,"2015-04-21T11:06:41Z","2015-04-21T08:06:41Z",-22.57,"[-22.57 -48.82]",-48.82,NA,"(GMT-03:00) America/Sao_Paulo",363.1,0,0,"Ride",NA,NA
"167",0,0,"Bogotá","Colombia",0,2,"F","Bogotá",1,NA,NA,3.398,NA,39.5,0,0,0,8831.1,2724,2560.7,2546,"[4.74 -74.03]",0,"",0,0,102.6,0,"Bogotá","Colombia","Bogotá",0,NA,6.7,NA,2599,"Entrenamiento vespertino",0,0,2,"2016-03-30T23:01:22Z","2016-03-30T18:01:22Z",4.7,"[4.7 -74.07]",-74.07,NA,"(GMT-05:00) America/Bogota",14.5,0,0,"Ride",NA,10
"168",11,0,"Palo Alto","United States",0,2,"F","CA",2,NA,NA,2.632,21,60.1,0,0,0,10567.7,6823,235.8,-39.6,"[37.86 -122.57]",0,"b1728805",0,0,241.3,0,"Mill Valley","United States","California",0,NA,8.1,NA,4015,"Tennessee Valley Loop ",0,0,2,"2015-01-02T20:08:24Z","2015-01-02T12:08:24Z",37.86,"[37.86 -122.54]",-122.54,NA,"(GMT-08:00) America/Los_Angeles",378,0,0,"Ride",NA,NA
"169",6,0,"Cumbria","United States",0,2,"F","",1,NA,NA,3.187,NA,NA,0,0,NA,5083.4,1600,85,42,"[54.67 -3.38]",0,"",0,0,NA,1,"","United States","",0,NA,4.9,NA,1595,"Quick loop",0,0,2,"2016-02-10T17:58:25Z","2016-02-10T17:58:25Z",54.67,"[54.67 -3.38]",-3.38,NA,"(GMT+00:00) Europe/London",81,0,0,"Run",NA,0
"170",0,0,"Isfield ","United Kingdom",0,2,"F","",1,NA,NA,5.618,NA,82.7,0,0,0,12152.6,2204,43,8.8,"[50.93 0.08]",0,"",0,0,178.8,0,"","United Kingdom","",0,NA,11.7,NA,2163,"Evening Ride",0,0,2,"2016-04-05T18:04:04Z","2016-04-05T19:04:04Z",50.93,"[50.93 0.08]",0.08,NA,"(GMT+00:00) Europe/London",66.7,0,0,"Ride",NA,10
"171",4,0,"ocean grove","Australia",0,2,"F","VIC",3,NA,NA,2.208,NA,NA,0,0,NA,8880,4608,38,1.8,"[-38.27 144.52]",0,"",0,0,NA,0,"Ocean Grove","Australia","VIC",0,NA,3.8,NA,4022,"Lunch Run",0,0,2,"2014-04-10T02:35:58Z","2014-04-10T12:35:58Z",-38.27,"[-38.27 144.52]",144.52,NA,"(GMT+10:00) Australia/Melbourne",42.3,0,0,"Run",NA,0
"172",22,0,"Mijnsheerenland","The Netherlands",0,2,"F","ZH",2,NA,NA,8.516,NA,158.4,0,0,0,59920.6,8458,10.9,-8.6,"[51.8 4.49]",0,"",0,0,1114.4,7,"Mijnsheerenland","The Netherlands","ZH",0,NA,11.8,NA,7036,"Avondrit met 4 anderen",0,0,2,"2014-10-01T16:07:58Z","2014-10-01T18:07:58Z",51.8,"[51.8 4.49]",4.49,NA,"(GMT+01:00) Europe/Amsterdam",24.4,0,0,"Ride",NA,NA
"173",0,0,"Banchory","United Kingdom",0,2,"F","Scotland",1,NA,NA,1.39,NA,NA,0,0,NA,4639.1,14476,16,0,"[55.68 12.59]",0,"",0,0,NA,0,"Copenhagen","Denmark","Capital Region of Denmark",0,NA,5.4,NA,3337,"Copenhagen 13/8/14",0,0,2,"2014-08-13T08:28:33Z","2014-08-13T10:28:33Z",55.68,"[55.68 12.59]",12.59,NA,"(GMT+01:00) Europe/Copenhagen",11.2,0,0,"Run",NA,0
"174",4,0,"Rotterdam","The Netherlands",0,2,"F","ZH",1,NA,NA,5.343,NA,112.4,0,0,0,13875.4,6155,14.2,-9,"[51.92 4.55]",0,"b1337657",0,0,291.8,0,"Schiedam","The Netherlands","South Holland",0,NA,12.7,NA,2597,"Afternoon Ride",0,0,2,"2015-01-19T16:17:47Z","2015-01-19T17:17:47Z",51.92,"[51.92 4.41]",4.41,NA,"(GMT+01:00) Europe/Amsterdam",79.7,0,0,"Ride",NA,NA
"175",3,0,"Vancouver","Canada",0,2,"F","British Columbia",1,81.2,NA,7.286,5,NA,0,0,0,42159.3,6608,14.4,-42.2,"[45.54 -73.57]",0,"",0,0,NA,4,"Montreal","Canada","QC",0,NA,14,NA,5786,"riding on the sunny side",0,0,2,"2015-10-26T20:26:49Z","2015-10-26T16:26:49Z",45.54,"[45.54 -73.57]",-73.57,NA,"(GMT-05:00) America/Montreal",178,0,0,"Ride",NA,NA
"176",0,0,"saint jean kerdaniel ","France",0,2,"F","breragne",1,NA,NA,2.534,NA,NA,0,0,NA,9020.2,3933,196.8,140.3,"[48.39 -2.86]",0,"",0,0,NA,0,"Saint-Brandan","France","Bretagne",0,NA,4,NA,3560,"Course du midi",0,0,2,"2015-03-16T10:10:43Z","2015-03-16T11:10:43Z",48.39,"[48.39 -2.86]",-2.86,NA,"(GMT+01:00) Europe/Paris",118.5,0,0,"Run",NA,0
"177",0,0,"Bishop's Castle","United Kingdom",0,2,"F","England",1,NA,NA,4.615,NA,56.6,0,0,0,21202.8,4867,189.1,147,"[52.5 -2.99]",0,"b1167806",0,0,260.2,0,"Clun","United Kingdom","England",0,NA,11.4,NA,4594,"16/07/2014 Clun, England, United Kingdom",0,0,2,"2014-07-16T16:02:47Z","2014-07-16T17:02:47Z",52.42,"[52.42 -3.02]",-3.02,NA,"(GMT+00:00) Europe/London",51.6,0,0,"Ride",NA,NA
"178",8,0,"Solva","United Kingdom",0,2,"F","Wales, UK",1,NA,NA,2.874,NA,NA,1,0,NA,6006.3,2111,70.9,18.1,"[51.88 -5.19]",0,"",0,0,NA,4,"Solva","United Kingdom","Wales",0,NA,5.9,NA,2090,"Middle mill.. quarry hill and back",0,0,2,"2015-03-16T13:25:57Z","2015-03-16T13:25:57Z",51.88,"[51.88 -5.19]",-5.19,NA,"(GMT+00:00) Europe/London",64.6,0,0,"Run",NA,0
"179",14,0,"Horsham","United Kingdom",0,2,"F","England",7,NA,NA,2.41,NA,NA,0,0,NA,5134.3,2148,51,41.3,"[51.07 -0.33]",0,"",0,0,NA,3,"Horsham","United Kingdom","England",0,NA,3.9,NA,2130,"Morning Run",0,0,2,"2015-07-18T08:03:47Z","2015-07-18T09:03:47Z",51.07,"[51.07 -0.33]",-0.33,NA,"(GMT+00:00) Europe/London",0,0,0,"Run",NA,0
"180",4,1,"Livingston","United Kingdom",1,2,"F","Scotland",1,77.6,NA,7.62,7,131.6,4,0,0,19460.7,2682,239,181.6,"[55.86 -3.67]",0,"b1663821",0,0,336.1,12,"","United Kingdom","",0,NA,14,NA,2554,"Afternoon Ride",0,0,2,"2016-02-07T15:02:52Z","2016-02-07T15:02:52Z",55.86,"[55.86 -3.67]",-3.67,NA,"(GMT+00:00) Europe/London",151,0,0,"Ride",NA,NA
"181",8,0,"Albuquerque","United States",0,2,"F","NM",2,82.5,155.7,5.802,NA,104,0,0,0,22072.4,4782,1963.4,1668,"[35.13 -106.54]",0,"b2453083",1,0,395.8,7,"Albuquerque","United States","New Mexico",0,181,15,NA,3804,"That hail though ",0,0,2,"2016-01-07T22:48:18Z","2016-01-07T15:48:18Z",35.13,"[35.13 -106.54]",-106.54,NA,"(GMT-07:00) America/Denver",375,3,0,"Ride",NA,NA
"182",42,1,"Etten Leur","The Netherlands",1,2,"F","Noord-Brabant",5,78,140.5,7.923,19,147,0,0,0,100023,16012,3,-43.2,"[51.57 4.68]",0,"",1,0,1856.2,21,"Etten Leur","The Netherlands","NB",0,176,15.5,NA,12625,"Ronde HW. ",0,0,2,"2015-08-08T06:24:08Z","2015-08-08T08:24:08Z",51.57,"[51.57 4.68]",4.68,102,"(GMT+01:00) Europe/Amsterdam",237,0,0,"Ride",NA,NA
"183",0,0,"Monmouth","United Kingdom",0,2,"F","",2,NA,NA,2.736,NA,NA,0,0,NA,5695.9,2476,42.2,16,"[51.81 -2.71]",0,"",0,0,NA,2,"Monmouth","United Kingdom","",0,NA,7.4,NA,2082,"Still no mojo :( #rubbish",0,0,2,"2015-08-18T08:06:16Z","2015-08-18T09:06:16Z",51.81,"[51.81 -2.7]",-2.7,NA,"(GMT+00:00) Europe/London",22.8,0,0,"Run",NA,0
"184",0,1,"Anchorage","United States",1,2,"F","AK",1,71.9,NA,1.652,NA,NA,0,0,NA,6032.1,3652,NA,NA,"",0,"g374070",0,0,NA,0,"","United States","",0,NA,2.8,NA,3652,"4x750@6.5 200m w",0,0,2,"2016-01-10T18:43:00Z","2016-01-10T09:43:00Z",NA,"",NA,NA,"(GMT-09:00) America/Anchorage",0,0,1,"Run",NA,0
"185",7,1,"Arlington","United States",1,2,"F","Virginia",1,NA,NA,2.979,NA,NA,0,0,NA,16226.3,5718,86,4.4,"[38.83 -77.09]",0,"",0,0,NA,0,"Arlington","United States","Virginia",0,NA,17.8,NA,5446,"10",0,0,2,"2016-03-20T19:36:25Z","2016-03-20T15:36:25Z",38.83,"[38.83 -77.09]",-77.09,NA,"(GMT-05:00) America/New_York",119,0,0,"Run",NA,0
"186",0,0,"Miami","Australia",0,2,"F","Queensland",1,NA,NA,2.643,NA,NA,0,0,NA,11002,4163,47.8,-2.4,"[-28.07 153.45]",0,"",0,0,NA,0,"Miami","Australia","Queensland",0,NA,4.5,NA,4163,"04/06/2014 Miami, Queensland, Australia",0,0,2,"2014-04-05T20:43:44Z","2014-04-06T06:43:44Z",-28.07,"[-28.07 153.45]",153.45,NA,"(GMT+10:00) Australia/Brisbane",123.6,0,0,"Run",NA,0
"187",2,0,"Padua","Italy",0,2,"F","Veneto",1,NA,151.3,2.291,NA,NA,0,0,NA,11763.3,5263,327.1,285.8,"[49.46 11.07]",0,"g152011",1,0,NA,1,"Nuremberg","Germany","Bavaria",0,192,5,NA,5135,"17/12/2013 ",0,0,2,"2013-12-17T12:39:45Z","2013-12-17T13:39:45Z",49.46,"[49.46 11.07]",11.07,NA,"(GMT+01:00) Europe/Berlin",55.7,0,0,"Run",NA,0
"188",2,0,"Busto Arsizio","Italy",0,2,"F","Lombardy",1,NA,NA,3.291,NA,NA,0,0,NA,12740.9,3924,238.5,219.8,"[45.62 8.83]",0,"",0,0,NA,0,"Busto Arsizio","Italy","Lombardy",0,NA,21.1,NA,3871,"Corsa serale",0,0,2,"2014-06-26T16:31:20Z","2014-06-26T18:31:20Z",45.62,"[45.62 8.83]",8.83,NA,"(GMT+01:00) Europe/Rome",13.7,0,0,"Run",NA,0
"189",0,0,"Midsomer Norton","United Kingdom",0,2,"F","England",1,NA,NA,3.002,NA,NA,0,0,NA,6733.1,2258,113.2,88.8,"[51.28 -2.48]",0,"",0,0,NA,0,"Midsomer Norton","United Kingdom","",0,NA,4.4,NA,2243,"03/07/2014 Midsomer Norton, United Kingdom",0,0,2,"2014-07-03T16:13:28Z","2014-07-03T17:13:28Z",51.28,"[51.28 -2.48]",-2.48,NA,"(GMT+00:00) Europe/London",53.5,0,0,"Run",NA,0
"190",0,0,"Upland","United States",0,2,"F","CA",1,NA,NA,8.311,13,NA,0,0,0,48953.3,100526,481.8,10.8,"[33.76 -117.9]",0,"",0,0,NA,0,"Upland","United States","California",0,NA,15.2,NA,5890,"Morning Ride",0,0,2,"2015-05-09T14:27:05Z","2015-05-09T07:27:05Z",34.12,"[34.12 -117.67]",-117.67,NA,"(GMT-08:00) America/Los_Angeles",254,0,0,"Ride",NA,NA
"191",0,0,"Mentone","Australia",0,2,"F","VIC",1,NA,NA,1.003,NA,NA,0,0,NA,5435.1,9945,177.3,0,"[44.14 9.69]",0,"",0,0,NA,0,"Monterosso Al Mare","Italy","Liguria",0,NA,5.1,NA,5418,"Monterosso to Vernazza",0,0,2,"2014-07-18T07:52:04Z","2014-07-18T09:52:04Z",44.14,"[44.14 9.64]",9.64,NA,"(GMT+01:00) Europe/Rome",488.9,0,0,"Hike",NA,NA
"192",0,0,"Saughall","United Kingdom",0,2,"F","England",1,NA,NA,4.11,NA,146.9,0,0,0,44608.9,11632,74.4,6.1,"[53.21 -2.9]",0,"b1159395",0,0,1594.1,2,"Liverpool","United Kingdom","England",0,NA,15.5,NA,10853,"Liverpool  to chester bike ride .",0,0,2,"2014-06-22T07:15:24Z","2014-06-22T08:15:24Z",53.41,"[53.41 -2.98]",-2.98,NA,"(GMT+00:00) Europe/London",141.3,0,0,"Ride",NA,NA
"193",0,1,"Napa","United States",1,2,"F","California",1,NA,161.8,3.165,NA,NA,0,0,NA,6482.3,2386,74.3,33.6,"[38.27 -122.06]",0,"",1,0,NA,2,"Fairfield","United States","CA",0,185,4.4,NA,2048,"Easy 4 Miler",0,0,2,"2014-01-23T02:43:59Z","2014-01-22T18:43:59Z",38.27,"[38.27 -122.06]",-122.06,86,"(GMT-08:00) America/Los_Angeles",99.5,0,0,"Run",NA,0
"194",2,0,"São Paulo","Brasil",0,2,"F","São Paulo",1,NA,NA,1.912,NA,NA,0,0,NA,6726.6,4339,772.1,726.4,"[-23.52 -46.72]",0,"",0,0,NA,0,"São Paulo","Brazil","São Paulo",0,NA,10.8,NA,3518,"Corrida matutina",0,0,2,"2015-08-11T10:29:50Z","2015-08-11T07:29:50Z",-23.52,"[-23.52 -46.72]",-46.72,NA,"(GMT-03:00) America/Sao_Paulo",43.9,1,0,"Run",NA,0
"195",0,0,"rimrock","United States",0,2,"F","Arizona",1,NA,NA,1.699,NA,NA,0,0,NA,2199.7,1349,963.3,951.4,"[34.59 -111.86]",0,"",0,0,NA,0,"Camp Verde","United States","Arizona",0,NA,4.2,NA,1295,"Afternoon Run",0,0,2,"2015-09-14T23:47:26Z","2015-09-14T16:47:26Z",34.59,"[34.59 -111.86]",-111.86,NA,"(GMT-07:00) America/Phoenix",0,0,0,"Run",NA,0
"196",3,0,"Chicago","United States",0,2,"F","IL",1,NA,NA,1.434,NA,NA,0,0,NA,4830.6,3380,180.9,179.5,"[41.96 -87.65]",0,"",NA,0,NA,0,"Chicago","United States","Illinois",0,NA,2,NA,3368,"05/04/2015 Chicago, Illinois",0,0,2,"2015-05-04T17:30:59Z","2015-05-04T12:30:59Z",41.97,"[41.97 -87.65]",-87.65,NA,"(GMT-06:00) America/Chicago",0,0,0,"Run",NA,NA
"197",2,0,"Cork","Ireland",0,2,"F","Cork",1,NA,NA,2.553,NA,NA,0,0,NA,4705.9,2015,27.9,2.9,"[51.89 -8.44]",0,"",0,0,NA,0,"Cork","Ireland","Cork",0,NA,8.1,NA,1843,"Week 12. No. 1. 30 min. ",0,0,2,"2015-03-18T09:19:24Z","2015-03-18T09:19:24Z",51.89,"[51.89 -8.45]",-8.45,NA,"(GMT+00:00) Europe/Dublin",24.2,0,0,"Run",NA,0
"198",9,0,"Medellin","Colombia",0,2,"F","Antioquia",10,NA,NA,3.056,NA,131.7,0,0,0,55338.4,18108,2600.7,1607.8,"[6.2 -75.57]",0,"",0,0,2384.6,23,"Medellín","Colombia","Antioquia",0,NA,16.8,NA,18108,"Medellin- santa elena- patanillo- medellin",0,0,2,"2015-09-26T12:09:37Z","2015-09-26T07:09:37Z",6.2,"[6.2 -75.56]",-75.56,NA,"(GMT-05:00) America/Bogota",2017.6,3,0,"Ride",NA,NA
"199",0,0,"Bradley Stoke","United Kingdom",0,2,"F","England",1,89.7,NA,2.76,NA,NA,0,0,NA,4382.2,1588,60,47.7,"[51.53 -2.53]",0,"g1084728",0,0,NA,3,"Bristol, South Gloucestershire BS36, UK","United Kingdom","England",0,NA,4.9,NA,1588,"Morning Run",0,0,2,"2016-03-23T09:19:37Z","2016-03-23T09:19:37Z",51.53,"[51.53 -2.53]",-2.53,NA,"(GMT+00:00) Europe/London",11.8,0,0,"Run",NA,NA
"200",0,0,"Austin","United States",0,2,"F","TX",2,NA,NA,2.364,NA,NA,0,0,NA,16016.5,6862,272.2,146.6,"[30.37 -97.79]",0,"g1199321",0,0,NA,0,"Austin","United States","Texas",0,NA,3.8,NA,6775,"Lakewood + Beauford Repeats",0,0,2,"2016-01-28T23:50:08Z","2016-01-28T17:50:08Z",30.37,"[30.37 -97.79]",-97.79,NA,"(GMT-06:00) America/Chicago",377,0,0,"Run",NA,3
"201",6,0,"Newport","United Kingdom",0,2,"F","Telford and Wrekin",1,NA,NA,3.601,NA,NA,0,0,NA,14608.1,5065,135,71.3,"[52.77 -2.37]",0,"",0,0,NA,0,"Newport","United Kingdom","Telford and Wrekin",0,NA,7.8,NA,4057,"Morning Run",0,0,2,"2014-05-17T09:02:48Z","2014-05-17T10:02:48Z",52.77,"[52.77 -2.37]",-2.37,NA,"(GMT+00:00) Europe/London",74.6,0,0,"Run",NA,0
"202",2,0,"Boston","United States",0,2,"F","MA",11,NA,NA,2.233,NA,48.7,0,0,0,26859.1,23233,56.6,0.5,"[42.34 -71.06]",0,"",0,0,586,1,"Boston","United States","MA",0,NA,12.7,NA,12030,"Boston Bike Party Gone Wild!",2,0,2,"2015-08-14T22:11:56Z","2015-08-14T18:11:56Z",42.34,"[42.34 -71.06]",-71.06,NA,"(GMT-05:00) America/New_York",64.5,2,0,"Ride",NA,0
"203",10,1,"San Jose","United States",1,2,"F","CA",2,70.1,139,5.207,19,81.6,0,0,1,68076.4,13915,606.8,14.6,"[37.38 -122.23]",0,"",1,0,1067.3,1,"Woodside","United States","California",0,167,19.6,319,13075,"10/11/2014 Woodside, California",0,0,2,"2014-10-11T17:42:13Z","2014-10-11T10:42:13Z",37.38,"[37.38 -122.23]",-122.23,129,"(GMT-08:00) America/Los_Angeles",1247,0,0,"Ride",88,NA
"204",0,0,"Budapest","Hungary",0,2,"F","Budapest",1,66.4,145.1,0.643,NA,NA,0,0,NA,2701.5,4201,NA,NA,"",0,"",1,0,NA,0,"","Hungary","",0,186,3.2,NA,4201,"Evening Walk",0,0,2,"2016-03-31T18:03:50Z","2016-03-31T20:03:50Z",NA,"",NA,NA,"(GMT+01:00) Europe/Budapest",0,0,1,"Walk",NA,NA
"205",2,0,"Busan","South Korea",0,2,"F","",2,59.2,129.9,4.715,15,91.7,0,0,0,75199.8,40401,563.1,4.2,"[35.87 128.6]",0,"",1,0,1462,8,"Busan","South Korea","",0,190,13.8,NA,15948,"04/12/2015 꾸앙투어-벚꽃보다 누나 인 대구",0,0,2,"2015-04-11T21:19:03Z","2015-04-12T06:19:03Z",35.21,"[35.21 129.02]",129.02,NA,"(GMT+09:00) Asia/Seoul",1384.6,4,0,"Ride",NA,NA
"206",0,0,"Missoula","United States",0,2,"F","MT",1,NA,NA,3.374,NA,NA,0,0,NA,14773,4931,1076.5,933.2,"[46.96 -114.12]",0,"g370066",0,0,NA,0,"Missoula","United States","MT",0,NA,4.2,NA,4378,"06/11/2014 Missoula, MT",0,0,2,"2014-06-11T11:50:32Z","2014-06-11T05:50:32Z",46.99,"[46.99 -114.15]",-114.15,NA,"(GMT-07:00) America/Denver",100.2,0,0,"Run",NA,NA
"207",0,0,"San Diego ","",0,2,"F","CA",1,NA,NA,2.462,NA,NA,0,0,NA,6423.3,2633,31,3.5,"[32.8 -117.24]",0,"",0,0,NA,0,"","","",0,NA,3.3,NA,2609,"Afternoon Run",0,0,2,"2015-08-01T00:55:43Z","2015-07-31T17:55:43Z",32.8,"[32.8 -117.24]",-117.24,NA,"(GMT-08:00) America/Los_Angeles",27.1,0,0,"Run",NA,NA
"208",0,0,"Victoria","Canada",0,2,"F","BC",1,83.8,NA,2.618,NA,NA,0,0,NA,7004.3,2675,122.6,82.2,"[48.45 -123.51]",0,"",NA,0,NA,1,"Victoria","Canada","British Columbia",0,NA,3.6,NA,2675,"Evening Run",0,0,2,"2015-11-08T02:17:00Z","2015-11-07T18:17:00Z",48.45,"[48.45 -123.52]",-123.52,NA,"(GMT-08:00) America/Vancouver",31.7,0,0,"Run",NA,NA
"209",0,0,"Jičín","Česká republika",0,2,"F","Královéhradecký kraj",1,NA,NA,4.527,NA,88.2,0,0,0,18951.9,4237,436.2,340.5,"[50.83 14.26]",0,"",0,0,369.4,0,"Bynovec","Czech Republic","Ústí nad Labem Region",0,NA,11.7,NA,4186,"1. kolo ČP MTBO - long (Býnovec)",0,0,2,"2014-05-03T13:02:54Z","2014-05-03T15:02:54Z",50.83,"[50.83 14.28]",14.28,NA,"(GMT+01:00) Europe/Prague",194.2,0,0,"Ride",NA,4
"210",0,0,"Costa Mesa","United States",0,2,"F","California",1,NA,177,2.97,NA,NA,0,0,NA,16131.3,5981,78.3,28.3,"[42.22 -71.12]",0,"",1,0,NA,0,"Milton","United States","MA",0,190,4.6,NA,5432,"Long w/ Friends",0,0,2,"2014-03-02T14:19:18Z","2014-03-02T09:19:18Z",42.22,"[42.22 -71.12]",-71.12,NA,"(GMT-05:00) America/New_York",93.5,0,0,"Run",NA,0
"211",2,0,"Salvador - Bahia","Brazil",0,2,"F","Brazil",1,NA,NA,3.847,NA,124.8,0,0,0,5293.9,2852,65.5,14.4,"[-12.96 -38.49]",0,"",0,0,171.7,218,"Salvador","Brazil","Bahia",0,NA,12.4,NA,1376,"Volta para casa",0,0,2,"2015-09-06T19:27:46Z","2015-09-06T16:27:46Z",-12.97,"[-12.97 -38.46]",-38.46,NA,"(GMT-03:00) America/Bahia",108.6,0,0,"Ride",NA,NA
"212",0,0,"Los Angeles","United States",0,2,"F","CA",1,NA,NA,3.112,NA,NA,0,0,NA,2645.5,966,56.2,38,"[34.03 -118.5]",0,"",0,0,NA,0,"Santa Monica","United States","CA",0,NA,6.2,NA,850,"Morning Run",0,0,2,"2014-07-20T17:01:49Z","2014-07-20T10:01:49Z",34.03,"[34.03 -118.5]",-118.5,NA,"(GMT-08:00) America/Los_Angeles",12.8,0,0,"Run",NA,NA
"213",0,0,"London","United Kingdom",0,2,"F","",1,NA,NA,1.693,NA,NA,0,0,NA,2976.4,2320,30.1,11,"[51.93 -2.27]",0,"",0,0,NA,0,"Ashleworth","United Kingdom","England",0,NA,4.2,NA,1758,"Afternoon Run",0,0,2,"2015-03-21T14:43:49Z","2015-03-21T14:43:49Z",51.93,"[51.93 -2.27]",-2.27,NA,"(GMT+00:00) Europe/London",0,0,0,"Run",NA,0
"214",0,0,"","",0,2,"F","",1,26.6,NA,0.835,NA,NA,0,0,NA,1828.8,2860,NA,NA,"",0,"",0,0,NA,5,"","","",0,NA,1.8,NA,2189,"Figured out how long it takes to feel good in the pool after 3 months off: 10 weeks. Lesson learned!",0,0,2,"2016-03-11T19:37:20Z","2016-03-11T14:37:20Z",NA,"",NA,NA,"(GMT-05:00) America/New_York",0,0,1,"Swim",NA,NA
"215",10,0,"Denver ","United States",0,2,"F","CO",1,NA,NA,6.496,NA,99.3,0,0,0,20227.1,3114,1726.7,1678.9,"[39.64 -104.87]",0,"",0,0,309.1,3,"Greenwood Village","United States","CO",0,NA,16.8,NA,3114,"Quick little sesh- busy Monday ",0,0,2,"2014-07-21T18:26:47Z","2014-07-21T12:26:47Z",39.64,"[39.64 -104.87]",-104.87,NA,"(GMT-07:00) America/Denver",101.2,0,0,"Ride",NA,NA
"216",0,1,"Idaho Falls","United States",1,2,"F","ID",1,86.7,156.7,8.961,17,165.9,0,0,1,32231.6,3954,1438.4,1412.6,"[43.46 -112.04]",0,"",1,0,596.6,14,"Idaho Falls","United States","ID",0,173,14.3,355,3597,"Tempo /windy ride ",0,0,2,"2015-10-06T19:22:03Z","2015-10-06T13:22:03Z",43.46,"[43.46 -112.04]",-112.04,68,"(GMT-07:00) America/Boise",56,0,0,"Ride",170,NA
"217",0,0,"Athens ","United States",0,2,"F","GA",1,NA,160.4,3.316,32,60.5,0,0,0,19898.8,260955,1762.2,194.2,"[40.41 -105.15]",0,"",1,0,363,0,"Fort Collins","United States","Colorado",0,193,10.6,NA,6000,"08/26/2014 Fort Collins, Colorado",0,0,2,"2014-08-26T18:11:33Z","2014-08-26T12:11:33Z",40.48,"[40.48 -105.12]",-105.12,NA,"(GMT-07:00) America/Denver",580,0,0,"Ride",NA,NA
"218",0,0,"Alexandria","United States",0,2,"F","VA",1,NA,NA,2.254,NA,37.9,0,0,0,126.2,322,4.8,4.6,"[38.8 -77.07]",0,"",0,0,2.1,0,"Alexandria","United States","Virginia",0,NA,3.5,NA,56,"Morning Ride",0,0,2,"2014-09-30T09:52:10Z","2014-09-30T05:52:10Z",38.8,"[38.8 -77.07]",-77.07,NA,"(GMT-05:00) America/New_York",0,0,0,"Ride",NA,0
"219",0,0,"Pembroke Pines ","",0,2,"F","",2,76.7,139.5,6.524,18,82.1,0,0,0,61006.6,9913,33.2,6.6,"[28.84 -82.33]",0,"",1,0,767.3,0,"","","",0,159,8.8,NA,9351,"Morning Ride",0,0,2,"2016-03-26T12:15:09Z","2016-03-26T08:15:09Z",28.83,"[28.83 -82.32]",-82.32,NA,"(GMT-05:00) America/New_York",139,0,0,"Ride",NA,NA
"220",0,0,"Wallsend","United Kingdom",0,2,"F","England",1,72,137.9,6.488,4,208.5,1,0,0,33023.2,5200,15.6,-51.4,"[55.01 -1.51]",0,"b1391347",1,0,1061.2,5,"Wallsend","United Kingdom","England",0,170,10.4,NA,5090,"Where is my auto pause? Can't feel my feet ",0,0,2,"2016-03-14T16:30:16Z","2016-03-14T16:30:16Z",55.01,"[55.01 -1.51]",-1.51,NA,"(GMT+00:00) Europe/London",197,0,0,"Ride",NA,10
"221",0,0,"Vancouver","Canada",0,2,"F","bc",1,NA,NA,2.408,NA,NA,0,0,NA,4149.7,2382,1052.4,1041,"[51.05 -114.07]",0,"",0,0,NA,0,"Calgary","Canada","AB",0,NA,4.8,NA,1723,"Morning Run",0,0,2,"2013-12-26T16:25:14Z","2013-12-26T09:25:14Z",51.05,"[51.05 -114.08]",-114.08,NA,"(GMT-07:00) America/Edmonton",10.9,0,0,"Run",NA,NA
"222",0,0,"Newcastle","Australia",0,2,"F","NSW",14,NA,158,2.487,NA,NA,0,0,NA,6129.3,2928,19.2,12.2,"[-32.71 151.55]",0,"",1,0,NA,0,"Oakhampton Heights","Australia","New South Wales",0,175,3.5,NA,2465,"Maitland Parkrun",0,0,2,"2015-12-11T20:52:12Z","2015-12-12T07:52:12Z",-32.71,"[-32.71 151.55]",151.55,NA,"(GMT+10:00) Australia/Sydney",6,2,0,"Run",NA,0
"223",9,0,"Melun","France",0,2,"F","IDF",1,NA,NA,7.807,NA,NA,0,0,0,72320.7,10083,123.6,48.1,"[47.35 0.66]",0,"",0,0,NA,0,"Joué-lès-Tours","France","Centre",0,NA,12.8,NA,9263,"28/07/2013 Joué-lès-Tours, Centre, France",0,0,2,"2013-07-28T07:21:23Z","2013-07-28T09:21:23Z",47.35,"[47.35 0.67]",0.67,NA,"(GMT+01:00) Europe/Paris",306.5,0,0,"Ride",NA,NA
"224",0,0,"San Luis Río Colorado","Mexico",0,2,"F","SON",1,NA,NA,2.519,NA,25.1,0,0,0,4047.4,1691,42.5,42.1,"[32.44 -114.79]",0,"b969790",0,0,40.4,0,"San Luis Río Colorado","Mexico","Sonora",0,NA,5.2,NA,1607,"4/7/15 San Luis Río Colorado, Sonora, Mexico",0,0,2,"2015-07-04T13:38:37Z","2015-07-04T06:38:37Z",32.45,"[32.45 -114.79]",-114.79,NA,"(GMT-07:00) America/Hermosillo",0,0,0,"Ride",NA,NA
"225",0,1,"San Francisco","United States",1,2,"F","California",1,NA,NA,2.732,NA,NA,0,0,NA,16224.9,7711,27.5,2.9,"[42.35 -71.06]",0,"g334501",0,0,NA,0,"Boston","United States","Massachusetts",0,NA,6.9,NA,5938,"Strava fails",0,0,2,"2015-10-18T13:52:09Z","2015-10-18T09:52:09Z",42.34,"[42.34 -71.08]",-71.08,NA,"(GMT-05:00) America/New_York",23.1,0,0,"Run",NA,0
"226",0,0,"Crawley","United Kingdom",0,2,"F","England",1,NA,NA,2.434,NA,NA,0,0,NA,5743.4,2397,73.9,62.8,"[51.13 -0.21]",0,"",0,0,NA,0,"Crawley","United Kingdom","England",0,NA,4.1,NA,2360,"Morning Run",0,0,2,"2014-05-23T05:26:36Z","2014-05-23T06:26:36Z",51.13,"[51.13 -0.21]",-0.21,NA,"(GMT+00:00) Europe/London",10.1,0,0,"Run",NA,NA
"227",2,0,"Arana Hills","Australia",0,2,"F","Queensland",1,93.6,NA,4.956,27,NA,2,0,NA,1224.1,504,44.4,38.2,"[-27.47 153.01]",0,"",0,0,NA,15,"South Brisbane","Australia","Queensland",0,NA,5.7,NA,247,"Morning Run",0,0,2,"2016-02-15T19:54:20Z","2016-02-16T05:54:20Z",-27.47,"[-27.47 153.01]",153.01,NA,"(GMT+10:00) Australia/Brisbane",0,0,0,"Run",NA,NA
"228",1,0,"Elsternwick","Australia",0,2,"F","VIC",1,NA,NA,1.547,NA,NA,0,0,NA,2575.4,1746,2,-51.4,"[-37.81 144.97]",0,"",0,0,NA,0,"Melbourne","Australia","Victoria",0,NA,4,NA,1665,"06/01/2015 Melbourne, Victoria, Australia",0,0,2,"2015-06-01T02:02:02Z","2015-06-01T12:02:02Z",-37.82,"[-37.82 144.97]",144.97,NA,"(GMT+10:00) Australia/Melbourne",83,0,0,"Run",NA,NA
"229",6,1,"Auckland","New Zealand",1,2,"F","Auckland",17,NA,NA,3.017,NA,NA,0,0,NA,10079.8,3341,30.6,20.2,"[-36.96 174.91]",0,"",0,0,NA,1,"Auckland","New Zealand","Auckland",0,NA,4.5,NA,3288,"Botany 10km",0,0,2,"2015-05-09T20:49:27Z","2015-05-10T08:49:27Z",-36.96,"[-36.96 174.91]",174.91,NA,"(GMT+12:00) Pacific/Auckland",30.2,0,0,"Run",NA,1
"230",0,0,"Pitt Meadows","Canada",0,2,"F","BC",1,NA,NA,2.003,NA,NA,0,0,NA,5048.9,3252,14.8,1,"[49.2 -122.68]",0,"",0,0,NA,0,"Pitt Meadows","Canada","BC",0,NA,6,NA,2521,"Morning Run",0,0,2,"2015-12-06T18:51:02Z","2015-12-06T10:51:02Z",49.2,"[49.2 -122.68]",-122.68,NA,"(GMT-08:00) America/Vancouver",32.7,0,0,"Run",NA,0
"231",5,0,"Lydney","United Kingdom",0,2,"F","",1,NA,NA,2.349,NA,NA,0,0,NA,4183.9,1860,78.6,65.1,"[51.78 -2.56]",0,"",0,0,NA,0,"Lydney","United Kingdom","",0,NA,10.1,NA,1781,"Morning Run",0,0,2,"2015-07-09T08:13:23Z","2015-07-09T09:13:23Z",51.78,"[51.78 -2.56]",-2.56,NA,"(GMT+00:00) Europe/London",12.5,0,0,"Run",NA,0
"232",0,0,"Canberra ","Australia",0,2,"F","act",1,NA,NA,0,NA,NA,0,0,NA,0,3000,NA,NA,"",0,"",0,0,NA,0,"","Australia","",1,NA,0,NA,3000,"Morning Ride and run at gym",0,0,2,"2014-04-09T20:00:10Z","2014-04-10T06:00:10Z",NA,"",NA,NA,"(GMT+10:00) Australia/Sydney",0,0,0,"Workout",NA,NA
"233",0,0,"Ottawa","Canada",0,2,"F","ON",1,NA,NA,3.055,NA,NA,0,0,0,6500,2128,NA,NA,"",0,"b2589911",0,0,NA,2,"","Canada","",1,NA,0,NA,2128,"BitGym Workout",0,0,2,"2016-01-26T11:38:15Z","2016-01-26T06:38:15Z",NA,"",NA,NA,"(GMT-05:00) America/Toronto",0,0,0,"VirtualRide",NA,NA
"234",0,0,"San Diego","United States",0,2,"F","CA",1,NA,NA,2.518,NA,NA,1,0,NA,1707.5,678,100.4,92.4,"[32.86 -117.23]",0,"",0,0,NA,1,"San Diego","United States","CA",0,NA,4.8,NA,678,"Evening Run ",0,0,2,"2015-08-02T01:26:45Z","2015-08-01T18:26:45Z",32.86,"[32.86 -117.23]",-117.23,NA,"(GMT-08:00) America/Los_Angeles",0,0,0,"Run",NA,0
"235",0,0,"João Pessoa","Brazil",0,2,"F","Paraíba",1,NA,NA,3.71,NA,47.8,0,0,0,2044,704,45.6,32.4,"[-7.15 -34.85]",0,"b2361485",0,0,26.3,0,"João Pessoa","Brazil","Paraíba",0,NA,7.8,NA,551,"Pedalada matutina",0,0,2,"2016-01-08T10:09:22Z","2016-01-08T07:09:22Z",-7.16,"[-7.16 -34.84]",-34.84,NA,"(GMT-03:00) America/Fortaleza",0,0,0,"Ride",NA,10
"236",6,0,"","France",0,2,"F","",1,NA,NA,2.337,NA,NA,0,0,NA,5171.9,2487,464.5,413.1,"[46.14 6.08]",0,"",0,0,NA,0,"Saint-Julien-en-Genevois","France","Rhône-Alpes",0,NA,5.8,NA,2213,"Course à pied en soirée",0,0,2,"2015-05-06T16:16:10Z","2015-05-06T18:16:10Z",46.14,"[46.14 6.08]",6.08,NA,"(GMT+01:00) Europe/Paris",53.2,1,0,"Run",NA,0
"237",0,0,"Saint Peter Port","Guernsey",0,2,"F","Saint Peter Port",1,82.7,NA,2.887,NA,NA,0,0,NA,6468.9,2241,NA,NA,"",0,"",0,0,NA,0,"","Guernsey","",0,NA,3.5,NA,2241,"Lunch Run",0,0,2,"2016-02-09T12:31:32Z","2016-02-09T12:31:32Z",NA,"",NA,NA,"(GMT+00:00) Europe/Guernsey",0,0,1,"Run",NA,NA
"238",6,0,"Saint Neots","United Kingdom",0,2,"F","England",6,NA,NA,4.117,NA,NA,0,0,0,17413,8480,63.8,38.9,"[52.3 -0.29]",0,"b2245860",0,0,NA,0,"Huntingdon","United Kingdom","",0,NA,8,NA,4230,"Go Ride Family Ride",0,0,2,"2015-10-31T10:01:52Z","2015-10-31T10:01:52Z",52.3,"[52.3 -0.29]",-0.29,NA,"(GMT+00:00) Europe/London",58,0,0,"Ride",NA,NA
"239",0,1,"Birmingham","United Kingdom",1,2,"F","England",1,NA,NA,4.827,NA,70,0,0,0,5869.1,1249,138.9,104.1,"[52.45 -1.91]",0,"b891292",0,0,85.1,0,"Birmingham","United Kingdom","England",0,NA,13.4,NA,1216,"Afternoon Ride",0,0,2,"2014-07-25T12:16:03Z","2014-07-25T13:16:03Z",52.48,"[52.48 -1.9]",-1.9,NA,"(GMT+00:00) Europe/London",14.1,0,0,"Ride",NA,NA
"240",2,0,"Medellin","Colombia",0,2,"F","Antioquia",1,NA,NA,5.109,NA,124.4,0,0,0,20739.2,4285,2600.4,2472.5,"[6.15 -75.52]",0,"",0,0,505.1,6,"Las Palmas","Colombia","Antioquia",0,NA,16.6,NA,4059,"Enero 30-2016",0,0,2,"2016-01-30T16:34:25Z","2016-01-30T11:34:25Z",6.15,"[6.15 -75.52]",-75.52,NA,"(GMT-05:00) America/Bogota",400.4,0,0,"Ride",NA,0
"241",0,0,"Sheffield","United Kingdom",0,2,"F","",13,96,NA,3.185,NA,NA,0,0,NA,5178.4,1631,26,6.8,"[52.62 1.22]",0,"",0,0,NA,0,"","United Kingdom","",0,NA,4.5,NA,1626,"Afternoon Run",0,0,2,"2016-01-13T14:31:30Z","2016-01-13T14:31:30Z",52.62,"[52.62 1.22]",1.22,NA,"(GMT+00:00) Europe/London",28,0,0,"Run",NA,NA
"242",21,0,"Brisbane","Australia",0,2,"F","QLD",1,NA,139.1,4.458,16,134,0,0,0,50213.8,11759,139.2,8.8,"[-26.4 153]",0,"b1002380",1,0,1508.8,1,"Tewantin","Australia","Queensland",0,170,9.6,NA,11263,"Girls weekend in Noosa... way too close to Wooroi trails not to take my bike... sooo much fun!!!",0,0,2,"2015-05-30T20:45:34Z","2015-05-31T06:45:34Z",-26.4,"[-26.4 153]",153,NA,"(GMT+10:00) Australia/Brisbane",1072,0,0,"Ride",NA,NA
"243",0,0,"Sheffield","United Kingdom",0,2,"F","",5,NA,NA,3.053,NA,92.6,0,0,0,2152.5,705,222.5,155.1,"[53.35 -1.53]",0,"",0,0,65.3,0,"","United Kingdom","",0,NA,4.3,NA,705,"Back from TTC run",0,0,2,"2016-03-22T10:41:05Z","2016-03-22T10:41:05Z",53.34,"[53.34 -1.52]",-1.52,NA,"(GMT+00:00) Europe/London",65.2,0,0,"Ride",NA,NA
"244",1,0,"Maisons-Alfort","France",0,2,"F","Île-de-France",1,88.2,155.3,2.829,NA,NA,0,0,NA,14005.7,7250,60.3,31.6,"[48.81 2.44]",0,"",1,0,NA,0,"Maisons-Alfort","France","Île-de-France",0,169,4.4,NA,4950,"Course à pied le midi",0,0,2,"2016-01-30T11:54:15Z","2016-01-30T12:54:15Z",48.8,"[48.8 2.45]",2.45,NA,"(GMT+01:00) Europe/Paris",68.3,0,0,"Run",NA,NA
"245",6,0,"Meridian","United States",0,2,"F","ID",2,NA,NA,2.856,NA,NA,0,0,NA,6083.9,3068,791.2,783.2,"[43.63 -116.4]",0,"",0,0,NA,2,"Meridian","United States","ID",0,NA,3.5,NA,2130,"05/24/2014 Meridian, ID",0,0,2,"2014-05-24T14:57:50Z","2014-05-24T08:57:50Z",43.63,"[43.63 -116.4]",-116.4,NA,"(GMT-07:00) America/Boise",0,0,0,"Run",NA,NA
"246",0,0,"Doncaster","Croatia",0,2,"F","England",2,NA,NA,2.831,NA,NA,1,0,NA,4946.1,1747,16.7,10,"[53.55 -1.09]",0,"",0,0,NA,3,"Doncaster","United Kingdom","England",0,NA,5.6,NA,1747,"Morning Run",0,0,2,"2014-09-27T08:02:22Z","2014-09-27T09:02:22Z",53.55,"[53.55 -1.09]",-1.09,NA,"(GMT+00:00) Europe/London",0,0,0,"Run",NA,0
"247",0,0,"Penicuik","United Kingdom",0,2,"F","",1,NA,NA,2.764,NA,NA,0,0,NA,6028.4,2198,236.9,205,"[55.84 -3.23]",0,"",0,0,NA,0,"Penicuik","United Kingdom","Scotland",0,NA,4.5,NA,2181,"Morning Run",0,0,2,"2015-05-01T08:13:31Z","2015-05-01T09:13:31Z",55.84,"[55.84 -3.23]",-3.23,NA,"(GMT+00:00) Europe/London",48.6,0,0,"Run",NA,0
"248",3,0,"Gilsdorf","Luxembourg",0,2,"F","Diekirch",1,NA,NA,1.484,NA,NA,0,0,NA,2877.4,1942,199.5,187.4,"[49.86 6.18]",0,"",0,0,NA,0,"Gilsdorf","Luxembourg","Diekirch",0,NA,4.7,NA,1939,"Nachmittagslauf",0,0,2,"2015-03-27T15:47:02Z","2015-03-27T16:47:02Z",49.86,"[49.86 6.18]",6.18,NA,"(GMT+01:00) Europe/Luxembourg",0,0,0,"Run",NA,0
"249",10,0,"Foz Do Iguaçu","Brazil",0,2,"F","PR",6,NA,NA,3.559,NA,60.4,0,0,0,26404.2,10220,242.4,166.4,"[-25.53 -54.56]",0,"",0,0,448.1,8,"Foz Do Iguaçu","Brazil","PR",0,NA,11.2,NA,7419,"Pedal em grupo libra-chacrinha",0,0,2,"2014-08-11T22:18:46Z","2014-08-11T19:18:46Z",-25.53,"[-25.53 -54.54]",-54.54,NA,"(GMT-03:00) America/Sao_Paulo",213.5,0,0,"Ride",NA,NA
"250",0,0,"","",0,2,"F","",1,NA,NA,3.093,NA,NA,0,0,0,5878.9,1991,179.5,141,"[40.59 -122.36]",0,"",0,0,NA,0,"","","",0,NA,8.2,NA,1901,"Afternoon Ride",0,0,2,"2014-07-13T20:35:55Z","2014-07-13T13:35:55Z",40.59,"[40.59 -122.4]",-122.4,NA,"(GMT-08:00) America/Los_Angeles",37.5,0,0,"Ride",NA,NA
"251",5,0,"Palmdale","United States",0,2,"F","CA",1,NA,NA,3.875,NA,NA,0,0,NA,3561.4,919,42,18.8,"[34.02 -118.42]",0,"",0,0,NA,1,"","United States","",0,NA,5,NA,919,"Evening Run",0,0,2,"2016-01-27T02:59:38Z","2016-01-26T18:59:38Z",34.02,"[34.02 -118.42]",-118.42,NA,"(GMT-08:00) America/Los_Angeles",20.8,0,0,"Run",NA,0
"252",0,0,"London","United Kingdom",0,2,"F","",1,NA,NA,5.358,18,129.9,0,0,0,7431.1,1552,16,-10.4,"[51.53 -0.1]",0,"b1971401",0,0,180.1,0,"London","United Kingdom","Greater London",0,NA,13.8,NA,1387,"21/07/2015 London, Greater London, United Kingdom",0,0,2,"2015-07-21T07:43:32Z","2015-07-21T08:43:32Z",51.47,"[51.47 -0.08]",-0.08,NA,"(GMT+00:00) Europe/London",41,0,0,"Ride",NA,NA
"253",5,0,"Cambridge","United Kingdom",0,2,"F","",1,NA,NA,2.327,NA,NA,0,0,NA,3435.2,1532,12,7,"[52.24 0.15]",0,"",0,0,NA,2,"Cambridge","United Kingdom","England",0,NA,5.7,NA,1476,"#sweatyhotweatherrun!",0,0,2,"2015-03-13T12:48:05Z","2015-03-13T12:48:05Z",52.23,"[52.23 0.15]",0.15,NA,"(GMT+00:00) Europe/London",0,0,0,"Run",NA,0
"254",2,0,"Aliso Viejo","United States",0,2,"F","CA",3,NA,NA,3.772,NA,114.6,0,0,0,16358.4,4586,308.7,24,"[33.58 -117.74]",0,"",0,0,496.8,6,"Laguna Beach","United States","CA",0,NA,13.5,NA,4337,"Morning Ride",0,0,2,"2016-04-02T16:58:25Z","2016-04-02T09:58:25Z",33.58,"[33.58 -117.74]",-117.74,NA,"(GMT-08:00) America/Los_Angeles",439.4,0,0,"Ride",NA,10
"255",0,0,"Columbus","United States",0,2,"F","NE",1,NA,NA,6.374,NA,NA,0,0,0,13003.5,2040,NA,NA,"",0,"b2638927",0,0,NA,0,"","United States","",1,NA,0,NA,2040,"Evening Ride",0,0,2,"2016-02-27T01:00:00Z","2016-02-26T19:00:00Z",NA,"",NA,NA,"(GMT-06:00) America/Chicago",0,0,0,"Ride",NA,NA
"256",0,0,"Bracebridge","Canada",0,2,"F","Ontario",1,NA,NA,7.408,NA,132.2,0,0,0,15216.2,2054,311.8,275.8,"[45.1 -79.41]",0,"b1411078",0,0,271.5,0,"Bracebridge","Canada","Ontario",0,NA,14.7,NA,2054,"08/07/2015 Bracebridge, Ontario, Canada",0,0,2,"2015-08-07T23:46:16Z","2015-08-07T19:46:16Z",45.1,"[45.1 -79.41]",-79.41,NA,"(GMT-05:00) America/Toronto",95.6,0,0,"Ride",NA,NA
"257",0,0,"Montmorency","Australia",0,2,"F","VIC",1,NA,NA,2.5,NA,NA,0,0,NA,4500,1800,NA,NA,"",0,"g607560",0,0,NA,4,"","Australia","",1,NA,0,NA,1800,"Post night shift Run",0,0,2,"2015-09-14T04:32:29Z","2015-09-14T14:32:29Z",NA,"",NA,NA,"(GMT+10:00) Australia/Melbourne",0,0,0,"Run",NA,NA
"258",1,0,"Sacramento","United States",0,2,"F","CA",1,NA,NA,2.151,NA,NA,0,0,NA,3715.1,1732,8.4,3.4,"[38.54 -121.5]",0,"",0,0,NA,0,"Sacramento","United States","CA",0,NA,6.5,NA,1727,"Morning Run",0,0,2,"2014-06-14T15:05:49Z","2014-06-14T08:05:49Z",38.54,"[38.54 -121.5]",-121.5,NA,"(GMT-08:00) America/Los_Angeles",0,0,0,"Run",NA,NA
"259",3,0,"Springfield","United States",0,2,"F","MO",1,NA,NA,3.401,NA,NA,0,0,NA,4890.6,1443,381.5,356.3,"[37.17 -93.33]",0,"g660452",0,0,NA,16,"Springfield","United States","Missouri",0,NA,5.3,NA,1438,"Morning Run to recover",0,0,2,"2016-04-04T14:20:22Z","2016-04-04T09:20:22Z",37.16,"[37.16 -93.35]",-93.35,NA,"(GMT-06:00) America/Chicago",22.6,1,0,"Run",NA,0
"260",0,0,"Mont-Saint-Hilaire","Canada",0,2,"F","Québec",1,90.5,NA,2.734,NA,NA,0,0,NA,10008.6,3682,15.9,7.9,"[45.55 -73.22]",0,"g1119523",0,0,NA,4,"","Canada","",0,NA,3.2,NA,3661,"Course à pied matinale",0,0,2,"2016-03-02T13:26:26Z","2016-03-02T08:26:26Z",45.55,"[45.55 -73.22]",-73.22,NA,"(GMT-05:00) America/Toronto",0,0,0,"Run",NA,NA
"261",0,1,"Wotton-under-Edge","United Kingdom",1,2,"F","England",1,88.1,141,0,NA,NA,0,0,0,0,5226,NA,NA,"",0,"",1,0,NA,1,"","United Kingdom","",0,170,0,NA,5226,"01/20/2015 Tuesday chain gang",0,0,2,"2015-01-20T18:16:16Z","2015-01-20T18:16:16Z",NA,"",NA,88,"(GMT+00:00) Europe/London",0,0,1,"Ride",NA,NA
"262",0,0,"San Francisco","United States",0,2,"F","California",1,NA,NA,5.544,NA,110.2,0,0,0,15561.3,46104,82.5,4.4,"[37.77 -122.46]",0,"",0,0,309.4,0,"San Francisco","United States","California",0,NA,13.6,NA,2807,"Morning Ride",0,0,2,"2015-06-15T15:39:11Z","2015-06-15T08:39:11Z",37.77,"[37.77 -122.46]",-122.46,NA,"(GMT-08:00) America/Los_Angeles",74.8,0,0,"Ride",NA,0
"263",0,0,"Cambridge","United Kingdom",0,2,"F","UK",1,NA,NA,3.589,NA,NA,0,0,NA,5692.7,1597,103.2,75,"[55.95 -3.21]",0,"",0,0,NA,0,"Edinburgh","United Kingdom","Scotland",0,NA,9.4,NA,1586,"Morning Run",0,0,2,"2015-08-11T09:06:45Z","2015-08-11T10:06:45Z",55.95,"[55.95 -3.21]",-3.21,NA,"(GMT+00:00) Europe/London",26,0,0,"Run",NA,0
"264",0,0,"Ashland","United States",0,2,"F","MA",1,NA,NA,2.681,NA,NA,0,0,NA,5126.7,1915,80.9,74.8,"[42.25 -71.47]",0,"",0,0,NA,2,"Ashland","United States","Massachusetts",0,NA,5,NA,1912,"Running around the fields while our son plays soccer. Turf is bouncy!",0,0,2,"2015-10-26T22:41:33Z","2015-10-26T18:41:33Z",42.25,"[42.25 -71.47]",-71.47,NA,"(GMT-05:00) America/New_York",0,0,0,"Run",NA,NA
"265",1,0,"Pilot Point","United States",0,2,"F","TX",2,NA,NA,6.065,NA,88.1,0,0,0,36529.2,6174,224.5,179,"[33.34 -96.94]",0,"",0,0,530.8,0,"Pilot Point","United States","TX",0,NA,11.3,NA,6023,"Afternoon Ride",0,0,2,"2015-04-25T18:40:43Z","2015-04-25T13:40:43Z",33.34,"[33.34 -96.94]",-96.94,NA,"(GMT-06:00) America/Chicago",139.2,0,0,"Ride",NA,0
"266",0,0,"Palavas Les Flots","France",0,2,"F","Languedoc-Roussillon",1,NA,NA,2.698,NA,NA,0,0,0,7312.2,3279,5.6,-1,"[43.53 3.93]",0,"",0,0,NA,0,"Palavas Les Flots","France","Languedoc-Roussillon",0,NA,5.9,NA,2710,"Sortie à vélo en soirée",0,0,2,"2014-08-12T16:29:21Z","2014-08-12T18:29:21Z",43.53,"[43.53 3.94]",3.94,NA,"(GMT+01:00) Europe/Paris",0,0,0,"Ride",NA,NA
"267",1,0,"Crewe","United Kingdom",0,2,"F","England",64,NA,162.1,2.823,NA,NA,0,0,NA,10227.8,3861,30.7,2.6,"[53.4 -2.99]",0,"",1,0,NA,5,"","United Kingdom","",0,182,5,NA,3623,"10k winter run for Cancer Research with Kev, Mel & Heather",0,0,2,"2016-01-17T09:23:32Z","2016-01-17T09:23:32Z",53.4,"[53.4 -2.99]",-2.99,NA,"(GMT+00:00) Europe/London",65.5,0,0,"Run",NA,0
"268",1,0,"Madrid","España",0,2,"F","Comunidad de Madrid",1,NA,143.3,3.287,NA,NA,0,0,NA,10080.2,3386,686.8,658.2,"[40.41 -3.68]",0,"",1,0,NA,3,"Madrid","Spain","Community of Madrid",0,168,5.3,NA,3067,"Series de 400m + zancadas",0,0,2,"2015-01-10T10:18:59Z","2015-01-10T11:18:59Z",40.41,"[40.41 -3.68]",-3.68,NA,"(GMT+01:00) Europe/Madrid",57,0,0,"Run",NA,NA
"269",1,0,"Dewsbury","United Kingdom",0,2,"F","England",1,NA,NA,2.429,NA,NA,0,0,NA,5245.2,2304,118,97.1,"[53.68 -1.59]",0,"",0,0,NA,0,"Wakefield","United Kingdom","England",0,NA,8.6,NA,2159,"Afternoon Run",0,0,2,"2014-01-22T16:01:17Z","2014-01-22T16:01:17Z",53.68,"[53.68 -1.59]",-1.59,NA,"(GMT+00:00) Europe/London",17.3,0,0,"Run",NA,NA
"270",0,0,"Porto Alegre","Brazil",0,2,"F","RS",1,NA,NA,2.222,NA,NA,0,0,NA,4029.1,1850,18,5,"[-29.39 -49.76]",0,"",0,0,NA,0,"Tôrres","Brazil","Rio Grande do Sul",0,NA,2.7,NA,1813,"Evening Run",0,0,2,"2016-01-31T21:49:22Z","2016-01-31T19:49:22Z",-29.39,"[-29.39 -49.76]",-49.76,NA,"(GMT-03:00) America/Sao_Paulo",10.7,0,0,"Run",NA,NA
"271",0,0,"Westwoodside","United Kingdom",0,2,"F","",2,NA,NA,2.413,NA,NA,0,0,NA,3086,1279,9.1,0.6,"[53.49 -0.88]",0,"",0,0,NA,0,"Haxey","United Kingdom","England",0,NA,4,NA,1279,"Evening Run",0,0,2,"2015-09-02T17:17:57Z","2015-09-02T18:17:57Z",53.49,"[53.49 -0.88]",-0.88,NA,"(GMT+00:00) Europe/London",0,0,0,"Run",NA,0
"272",2,0,"Annandale","Australia",0,2,"F","New South Wales",1,NA,NA,1.66,NA,NA,0,0,NA,2627.8,2022,34,14.7,"[-33.88 151.17]",0,"",0,0,NA,0,"Glebe","Australia","New South Wales",0,NA,3.9,NA,1583,"Walk home from gym",0,0,2,"2014-11-18T08:04:35Z","2014-11-18T19:04:35Z",-33.88,"[-33.88 151.19]",151.19,NA,"(GMT+10:00) Australia/Sydney",0,0,0,"Run",NA,0
"273",0,0,"Boise","United States",0,2,"F","Idaho",1,NA,NA,2.454,NA,NA,0,0,NA,1693.3,690,818.1,815.7,"[43.61 -116.22]",0,"",0,0,NA,0,"","United States","",0,NA,3.1,NA,690,"day 96",0,0,2,"2016-04-06T00:02:49Z","2016-04-05T18:02:49Z",43.61,"[43.61 -116.22]",-116.22,NA,"(GMT-07:00) America/Boise",0,0,0,"Run",NA,NA
"274",0,0,"Reno","United States",0,2,"F","NV",1,NA,NA,3.18,NA,58.7,0,0,0,7587.9,2567,1681.4,1500.5,"[39.55 -119.85]",0,"",0,0,140.1,0,"Reno","United States","NV",0,NA,7.5,NA,2386,"Single speedin with dad",0,0,2,"2014-02-20T23:20:05Z","2014-02-20T15:20:05Z",39.55,"[39.55 -119.85]",-119.85,NA,"(GMT-08:00) America/Los_Angeles",199.6,0,0,"Ride",NA,NA
"275",0,1,"London","United Kingdom",1,2,"F","England",4,NA,NA,2.323,NA,NA,0,0,NA,4996,2270,76.6,67.4,"[51.86 0.52]",0,"",0,0,NA,2,"Great Notley","United Kingdom","England",0,NA,4.7,NA,2151,"Great Notley parkrun",0,0,2,"2015-07-11T08:00:27Z","2015-07-11T09:00:27Z",51.86,"[51.86 0.52]",0.52,NA,"(GMT+00:00) Europe/London",0,0,0,"Run",NA,0
"276",0,0,"Oslo","Norway",0,2,"F","Oslo",1,NA,NA,1.7,NA,NA,0,0,NA,4774.3,3054,17.4,0,"[58.96 5.76]",0,"",0,0,NA,0,"Stavanger","Norway","Rogaland",0,NA,2.6,NA,2808,"Evening Run",0,0,2,"2015-08-12T17:08:48Z","2015-08-12T19:08:48Z",58.96,"[58.96 5.74]",5.74,NA,"(GMT+01:00) Europe/Oslo",65.8,0,0,"Run",NA,0
"277",1,0,"","",0,2,"F","",1,NA,NA,5.358,NA,125,0,0,0,16336.9,3318,222.4,205.2,"[31.55 74.34]",0,"",0,0,381.1,0,"","","",0,NA,9.7,NA,3049,"Night Ride",0,0,2,"2016-02-19T18:20:09Z","2016-02-19T23:20:09Z",31.45,"[31.45 74.26]",74.26,NA,"(GMT+05:00) Asia/Karachi",26.3,0,0,"Ride",NA,10
"278",0,1,"Youngtown","Australia",1,2,"F","TAS",1,NA,NA,5.227,22,172.4,0,0,0,15847.1,3236,114.8,28,"[-41.48 147.18]",0,"b1610525",0,0,522.7,0,"Youngtown","Australia","Tasmania",0,NA,14.4,NA,3032,"Afternoon Ride",0,0,2,"2016-02-26T05:04:13Z","2016-02-26T16:04:13Z",-41.48,"[-41.48 147.18]",147.18,NA,"(GMT+10:00) Australia/Hobart",398,0,0,"Ride",NA,NA
"279",8,1,"Randburg","South Africa",1,2,"F","",3,NA,149.9,4.851,NA,NA,0,0,0,54665,12545,1524.5,1336.6,"[-26.03 28.01]",0,"",1,0,NA,0,"","South Africa","",0,179,15,NA,11268,"Morning Ride",0,0,2,"2016-01-16T04:01:33Z","2016-01-16T06:01:33Z",-26.03,"[-26.03 28.01]",28.01,155,"(GMT+02:00) Africa/Johannesburg",821.4,0,0,"Ride",NA,NA
"280",0,0,"Llangathen","United Kingdom",0,2,"F","Wales",1,NA,NA,0.639,NA,NA,0,0,NA,1609.3,2520,NA,NA,"",0,"",0,0,NA,0,"Llangathen","United Kingdom","Wales",1,NA,0,NA,2520,"Good one today - no competition",0,0,2,"2014-07-01T23:00:00Z","2014-07-02T00:00:00Z",51.88,"[51.88 -4.06]",-4.06,NA,"(GMT+00:00) Europe/London",0,0,0,"Swim",NA,NA
"281",11,0,"Linköping","",0,2,"F","",2,NA,NA,7.769,NA,150.1,0,0,0,49235.2,6337,143.6,70.3,"[58.39 15.62]",0,"",0,0,950.9,0,"Linköping","Sweden","Östergötland County",0,NA,15.7,NA,6337,"Korta Nykilrundan",0,0,2,"2014-05-26T16:37:04Z","2014-05-26T18:37:04Z",58.39,"[58.39 15.63]",15.63,NA,"(GMT+01:00) Europe/Stockholm",263.4,0,0,"Ride",NA,0
"282",0,0,"Renswoude","Netherlands",0,2,"F","Utrecht",1,NA,NA,2.607,NA,NA,1,0,NA,6152,2360,17.1,3.2,"[52.08 5.54]",0,"",0,0,NA,4,"Renswoude","Netherlands","Utrecht",0,NA,6.8,NA,2360,"Ochtendrit",0,0,2,"2015-10-25T06:57:33Z","2015-10-25T07:57:33Z",52.08,"[52.08 5.54]",5.54,NA,"(GMT+01:00) Europe/Amsterdam",11.5,0,0,"Run",NA,0
"283",1,0,"","",0,2,"F","",2,NA,NA,3.322,NA,40.9,2,0,0,45028.6,18356,92.2,10,"[51.88 -2.07]",0,"",0,0,554.4,2,"","","",0,NA,9.1,NA,13556,"Scenic route to Gloucester ",0,0,2,"2016-03-25T12:54:47Z","2016-03-25T12:54:47Z",51.88,"[51.88 -2.07]",-2.07,NA,"(GMT+00:00) Europe/London",126.1,1,0,"Ride",NA,10
"284",0,0,"Rowhedge","United Kingdom",0,2,"F","England",1,NA,NA,2.194,NA,NA,0,0,NA,1950.7,959,30.8,20.6,"[51.86 0.94]",0,"",0,0,NA,1,"Rowhedge","United Kingdom","England",0,NA,2.8,NA,889,"Lunch run",0,0,2,"2015-09-07T10:26:10Z","2015-09-07T11:26:10Z",51.86,"[51.86 0.94]",0.94,NA,"(GMT+00:00) Europe/London",0,0,0,"Run",NA,0
"285",0,0,"Renmark","Australia",0,2,"F","South Australia",1,NA,NA,1.782,NA,NA,0,0,NA,2587.2,82961,27.7,19.3,"[-34.18 140.77]",0,"",0,0,NA,0,"Renmark","Australia","South Australia",0,NA,3.7,NA,1452,"Morning Run",0,0,2,"2015-12-12T22:47:48Z","2015-12-13T09:17:48Z",-34.17,"[-34.17 140.75]",140.75,NA,"(GMT+09:30) Australia/Adelaide",0,0,0,"Run",NA,0
"286",0,0,"Philadelphia","United States",0,2,"F","PA",1,NA,NA,2.18,NA,NA,0,0,NA,2920.8,1373,51.2,8.4,"[40.03 -75.22]",0,"",0,0,NA,0,"Philadelphia","United States","PA",0,NA,5.1,NA,1340,"Afternoon Run",0,0,2,"2014-03-07T19:25:59Z","2014-03-07T14:25:59Z",40.03,"[40.03 -75.22]",-75.22,NA,"(GMT-05:00) America/New_York",38.5,0,0,"Run",NA,NA
"287",0,0,"Den Haag","Netherlands",0,2,"F","Zuid-Holland",1,NA,NA,2.429,NA,NA,0,0,NA,7582.5,3283,17,-1,"[52.06 4.24]",0,"",0,0,NA,0,"Den Haag","Netherlands","Zuid-Holland",0,NA,4.8,NA,3122,"Ochtendloop",0,0,2,"2015-07-07T07:37:09Z","2015-07-07T09:37:09Z",52.06,"[52.06 4.24]",4.24,NA,"(GMT+01:00) Europe/Amsterdam",12.4,0,0,"Run",NA,0
"288",0,0,"liverpool ","United Kingdom",0,2,"F","England",1,NA,NA,2.396,NA,NA,0,0,NA,5247.4,2255,33.9,25.1,"[53.44 -2.28]",0,"",0,0,NA,0,"Manchester","United Kingdom","England",0,NA,7.5,NA,2190,"Evening Run",0,0,2,"2014-03-20T18:53:16Z","2014-03-20T18:53:16Z",53.44,"[53.44 -2.29]",-2.29,NA,"(GMT+00:00) Europe/London",0,0,0,"Run",NA,0
"289",0,1,"Denver","United States",1,2,"F","CO",1,NA,NA,3.828,NA,55.5,0,0,0,918.7,275,1728.1,1718.6,"[39.63 -104.91]",0,"b1157607",0,0,13.3,0,"Denver","United States","CO",0,NA,11.3,NA,240,"Afternoon Ride",0,0,2,"2014-02-20T22:41:58Z","2014-02-20T15:41:58Z",39.63,"[39.63 -104.9]",-104.9,NA,"(GMT-07:00) America/Denver",0,0,0,"Ride",NA,NA
"290",0,0,"Lincoln","United Kingdom",0,2,"F","England",1,NA,NA,4.978,NA,169.3,0,0,0,10637.6,2645,79.8,4.7,"[53.16 -0.54]",0,"b1739526",0,0,361.7,0,"Lincoln","United Kingdom","England",0,NA,12.7,NA,2137,"Afternoon Ride",0,0,2,"2015-06-08T14:34:19Z","2015-06-08T15:34:19Z",53.23,"[53.23 -0.55]",-0.55,NA,"(GMT+00:00) Europe/London",76.7,0,0,"Ride",NA,0
